business_id,name,address,city,postal_code,lat,lon,tract_geoid,median_household_income,poverty_rate_pct,access_class,access_score
PR0300002,LUCKY LIQUORS,63 S ABBOTT AV,Milpitas,95035,37.427288,-121.913619,06085504507,163724,6.4,underserved,7
PR0300004,7-ELEVEN #14240E,15 S ABBOTT AV,Milpitas,95035,37.428028,-121.91407,06085504507,163724,6.4,underserved,7
PR0300005,GREAT INDIAN CUISINE,2026 AGNEW RD,Santa Clara,95054,37.3942023,-121.9597311999,06085505010,202663,9.9,underserved,7
PR0300006,BOB'S DISCOUNT LIQUORS #9,2036 AGNEW RD,Santa Clara,95054,37.394078,-121.960308,06085505010,202663,9.9,underserved,7
PR0300007,DENNY'S,814 E AHWANEE AV,Sunnyvale,94086,37.396304,-122.028118,06085509001,162981,7.6,underserved,6
PR0300010,GREENLEE'S BAKERY,1081 THE ALAMEDA,San Jose,95126,37.331668,-121.911064,06085500600,140045,9.0,underserved,8
PR0300011,ROSIE'S NEW YORK PIZZA,1285 THE ALAMEDA,San Jose,95126,37.3320299,-121.9126904,06085500600,140045,9.0,underserved,8
PR0300012,LUNA MEXICAN RESTAURANT,1495 THE ALAMEDA AV,San Jose,95126,37.3339488,-121.9152935,06085500600,140045,9.0,underserved,8
PR0300013,MEDALLO RESTAURANT,1860 THE ALAMEDA ST,San Jose,95126,37.3404839,-121.92169,06085500400,152973,2.4,underserved,7
PR0300014,BILL'S CAFE,2089 THE ALAMEDA,San Jose,95126,37.343016,-121.928426,06085505203,139028,27.8,underserved,8
PR0300015,Taco Bell - 24783,2555 THE ALAMEDA,Santa Clara,95050,37.3452,-121.93561,06085505203,139028,27.8,underserved,8
PR0300017,SAFEWAY #763,2605 THE ALAMEDA,Santa Clara,95050,37.3459467,-121.9365362,06085505203,139028,27.8,underserved,8
PR0300018,ROUND TABLE PIZZA #1342,2615 THE ALAMEDA,Santa Clara,95050,37.345319,-121.936357,06085505203,139028,27.8,underserved,8
PR0300020,THE HUT,3200 THE ALAMEDA,Santa Clara,95050,37.351469,-121.940329,06085505600,140263,20.1,underserved,8
PR0300021,PALO ALTO HILLS GOLF & COUNTRY CLUB,3000 ALEXIS DR,Palo Alto,34304,37.371047,-122.174502,06085511707,203068,5.9,underserved,7
PR0300023,SENIOR CENTER KITCHEN,19655 ALLENDALE AV,Saratoga,95070,37.2666753,-122.0160272,06085507301,244207,5.4,moderate,3
PR0300024,CARNITAS EL RINCON,148 W ALMA AV,San Jose,95110,37.314189,-121.876456,06085503121,92607,13.3,highly_underserved,9
PR0300025,PAGODA HOUSE,148 W ALMA AV A,San Jose,95110,37.314189,-121.876456,06085503121,92607,13.3,highly_underserved,9
PR0300028,SAN JOSE ELKS LODGE #522 - KITCHEN & BAR,444 W ALMA AV,San Jose,95110,37.308691,-121.883741,06085502400,222311,6.8,moderate,3
PR0300029,SOUVLAKI GREEK SKEWERS,577 W ALMA AV,San Jose,95125,37.3090551,-121.8874402,06085502400,222311,6.8,moderate,3
PR0300034,CARAVAN LOUNGE,98 S ALMADEN AV,San Jose,95113,37.332966,-121.892299,06085500800,151357,10.9,underserved,8
PR0300035,6 TO LATE #6,690 S ALMADEN AV,San Jose,95110,37.324007,-121.885861,06085501700,94736,13.1,underserved,8
PR0300036,UNION MARKET,750 ALMADEN AV,San Jose,95110,37.323047,-121.885129,06085501700,94736,13.1,underserved,8
PR0300038,PAUL'S IMPERIO LIQUORS AND TAQUERIA #3,1401 ALMADEN RD,San Jose,95125,37.312669,-121.878761,06085503121,92607,13.3,highly_underserved,9
PR0300040,HACIENDA MEXICAN KITCHEN,1616 ALMADEN RD,San Jose,95125,37.3077057,-121.8783834999,06085503121,92607,13.3,highly_underserved,9
PR0300045,HOOZ DONUTS,2306 ALMADEN RD # 101,San Jose,95125,37.290477,-121.880189,06085503124,124229,15.6,underserved,8
PR0300046,MCDONALD'S RESTAURANT #0973,2434 ALMADEN EX,San Jose,95125,37.2899882,-121.8797375,06085503124,124229,15.6,underserved,8
PR0300047,7-ELEVEN #14270D,2440 ALMADEN EX,San Jose,95125,37.28968,-121.879938,06085503124,124229,15.6,underserved,8
PR0300048,MINI MART,2970 ALMADEN EX,San Jose,95125,37.278613,-121.880032,06085503002,139863,4.4,underserved,7
PR0300049,EL TORO MAMBO RESTOBAR,2988 ALMADEN EX,San Jose,95125,37.2781637,-121.8799405,06085503002,139863,4.4,underserved,7
PR0300050,JACK IN THE BOX,4602 ALMADEN EX,San Jose,95118,37.262623,-121.876084,06085512024,136168,8.8,underserved,7
PR0300051,BASKIN ROBBINS,5353 ALMADEN EX # 34,San Jose,95118,37.254112,-121.877988,06085502910,110091,11.7,underserved,8
PR0300054,SUBWAY #45877,5353 ALMADEN EX 28,San Jose,95118,37.254112,-121.877988,06085502910,110091,11.7,underserved,8
PR0300055,SEE'S CANDIES #27,5353 ALMADEN EX D-16,San Jose,95118,37.257561,-121.889775,06085502909,101607,5.8,underserved,6
PR0300056,ALMADEN SUSHI,6471-70 ALMADEN EX,San Jose,95120,37.219662,-121.861227,06085511905,250001,0.7,well_served,1
PR0300057,SAFEWAY #695,6477 ALMADEN EX,San Jose,95120,37.219662,-121.861227,06085511905,250001,0.7,well_served,1
PR0300067,A BITE OF WYOMING,2227 ALUM ROCK AV,San Jose,95116,37.3577948,-121.8451785,06085503712,50612,27.0,highly_underserved,11
PR0300068,EL CATRIN BAR,2255 ALUM ROCK AV,San Jose,95116,37.358398,-121.844918,06085503712,50612,27.0,highly_underserved,11
PR0300070,DONG QUE RESTAURANT,2852 ALUM ROCK AV,San Jose,95127,37.3635773,-121.8326113,06085504001,87364,11.2,highly_underserved,9
PR0300072,PETERS BAKERY INC,3108 ALUM ROCK AV,San Jose,95127,37.3657832,-121.8275479,06085504101,144167,8.2,underserved,6
PR0300073,R & D LIQUOR,3120 ALUM ROCK AV,San Jose,95127,37.365955,-121.827434,06085504101,144167,8.2,underserved,6
PR0300074,SAN JOSE COUNTRY CLUB-FOOD,15571 ALUM ROCK AV,San Jose,95127,37.3824752,-121.817039,06085504201,197750,6.7,moderate,5
PR0300075,GUNN HIGH SCHOOL,780 ARASTRADERO RD,Palo Alto,94022,37.399509,-122.133101,06085510600,198068,18.8,underserved,6
PR0300076,CHEETAS GENTLEMAN'S CLUB,907 E ARQUES AV,Sunnyvale,94086,37.381216,-122.008978,06085508708,250001,7.3,moderate,5
PR0300077,SANTEE SCHOOL,1313 AUDUBON DR,San Jose,95122,37.328036,-121.84669,06085503110,77353,14.2,highly_underserved,9
PR0300079,PALERMO,791 AUZERAIS AV,San Jose,95126,37.3218559,-121.902388,06085500800,151357,10.9,underserved,8
PR0300082,EDENVALE SCHOOL,285 AZUCAR AVE,San Jose,95111,37.261739,-121.802875,06085512043,81984,7.1,highly_underserved,10
PR0300086,BOWERS SCHOOL,2755 BARKLEY AV,Santa Clara,95051,37.35731,-121.976189,06085505302,213365,6.3,moderate,5
PR0300087,KENTUCKY FRIED CHICKEN #150,250 N BASCOM AV,San Jose,95124,37.327535,-121.931588,06085500500,166514,3.5,underserved,7
PR0300088,BILLS CAFE,302 N BASCOM AV,San Jose,95128,37.3233102,-121.9318297,06085502001,94794,13.4,highly_underserved,9
PR0300089,PINK POODLE THEATRE THE,328 S BASCOM AV B,San Jose,95128,37.3230442,-121.9318149,06085502001,94794,13.4,highly_underserved,9
PR0300090,TIP TOP LIQUOR,439 S BASCOM AV,San Jose,95128,37.320738,-121.932063,06085502001,94794,13.4,highly_underserved,9
PR0300094,MINI GOURMET,599 S BASCOM AV,San Jose,95128,37.3164989,-121.9319407,06085502101,144038,11.3,highly_underserved,9
PR0300096,MCDONALD'S RESTAURANT-898,898 S BASCOM AV,San Jose,95128,37.310991,-121.931153,06085502103,91591,17.6,highly_underserved,9
PR0300097,COM TAM THANH,905 S BASCOM AV,San Jose,95128,37.3102872,-121.931897,06085502101,144038,11.3,highly_underserved,9
PR0300100,7 ELEVEN 14299D,1335 S BASCOM AV,San Jose,95128,37.3008831,-121.9322685,06085502101,144038,11.3,highly_underserved,9
PR0300103,JACK IN THE BOX #411,1737 S BASCOM AV,Campbell,95008,37.291766,-121.932155,06085502604,110581,4.8,moderate,5
PR0300104,LUNA MEXICAN KITCHEN,1875 S BASCOM AV # 570,Campbell,95008,37.2882795,-121.9333534,06085502604,110581,4.8,moderate,5
PR0300106,PRUNEYARD CINEMAS - KITCHEN,1875 S BASCOM AV,Campbell,95008,37.2882795,-121.9333534,06085502604,110581,4.8,moderate,5
PR0300107,WIENERSCHNITZEL,1940 S BASCOM AV,Campbell,95008,37.288169,-121.931159,06085502603,206125,7.2,moderate,4
PR0300108,TACO BRAVO,1950 S BASCOM AV,Campbell,95008,37.2880842,-121.9315698,06085502603,206125,7.2,moderate,4
PR0300109,7-ELEVEN FOOD STORE #2367-14298E,2223 S BASCOM AV,Campbell,95008,37.282959,-121.931824,06085502604,110581,4.8,moderate,5
PR0300112,KIRK'S STEAKBURGER,2509 S BASCOM AV,Campbell,95008,37.277648,-121.932588,06085502701,133658,7.4,moderate,5
PR0300113,QUIK STOP MARKET #550034,2704 S BASCOM AV,San Jose,95124,37.272157,-121.935756,06085502701,133658,7.4,moderate,5
PR0300114,CHARLEE'S LIQUOR MARKET,2905 S BASCOM AV,Campbell,95008,37.269243,-121.938582,06085502701,133658,7.4,moderate,5
PR0300116,KFC/A&W RESTAURANT,3144 S BASCOM AV,San Jose,95124,37.2663583,-121.9406813,06085502701,133658,7.4,moderate,5
PR0300117,BASCOM LIQUOR & FOOD,3750 S BASCOM AV,San Jose,95124,37.259794,-121.946643,06085502703,145541,10.8,underserved,6
PR0300118,BASCOM DONUTS,3966 S BASCOM AV,San Jose,95124,37.258669,-121.947239,06085502703,145541,10.8,underserved,6
PR0300121,CAFE DE FLORE INC,19480 BEAR CREEK RD,Los Gatos,950339519,37.1742897,-122.0090179,06085511800,196786,4.0,moderate,4
PR0300123,SANTA CLARA USD ADULT EDUC CTR,1840 BENTON ST,Santa Clara,95050,37.346968,-121.955336,06085505500,171855,3.9,moderate,4
PR0300124,SANTA CLARA HIGH SCHOOL-CAFETERIA,3000 BENTON ST,Santa Clara,95051,37.346462,-121.982329,06085505403,182500,6.1,underserved,6
PR0300125,7-ELEVEN FOOD STORE #14241,3565 BENTON ST,Santa Clara,95051,37.345483,-121.994367,06085505401,162000,14.4,underserved,6
PR0300126,BOB'S DISCOUNT LIQUOR #2,3585 BENTON ST,Santa Clara,95051,37.345557,-121.995065,06085505401,162000,14.4,underserved,6
PR0300127,SANTA TERESA GOLF COURSE BANQUET,260 BERNAL RD,San Jose,95119,37.2239245,-121.7794390999,06085511911,167639,7.0,moderate,5
PR0300128,ARBY'S ROAST BEEF,601 S BERNARDO AV,Sunnyvale,94087,37.3734449,-122.056872,06085508401,198816,1.7,moderate,3
PR0300129,CASA LUPE #2,671 S BERNARDO AV,Sunnyvale,94087,37.371965,-122.057612,06085508401,198816,1.7,moderate,3
PR0300130,HANAMARU,675 S BERNARDO AV,Sunnyvale,94087,37.3725011,-122.0567865,06085508401,198816,1.7,moderate,3
PR0300132,BAFS-BFM-CONCRETE BUILDING,1590 BERRYESSA RD,San Jose,95133,37.3694879,-121.878729,06085504319,227279,10.3,underserved,6
PR0300133,BAFS-BFM-COTTON CANDY,1590 BERRYESSA RD,San Jose,95133,37.3694879,-121.878729,06085504319,227279,10.3,underserved,6
PR0300138,LA FORET,21747 BERTRAM RD,San Jose,95120,37.17394,-121.82378,06085511911,167639,7.0,moderate,5
PR0300140,MINT LEAF CUISINE,14420 BIG BASIN WY,Saratoga,95070,37.258541,-122.032471,06085507302,250001,4.7,well_served,1
PR0300143,PLUMED HORSE RESTAURANT,14555 BIG BASIN WY,Saratoga,95070,37.256619,-122.035232,06085507302,250001,4.7,well_served,1
PR0300146,THE RANCH KITCHEN,14583 BIG BASIN WY UNIT 1A,Saratoga,95070,37.256347,-122.035856,06085507302,250001,4.7,well_served,1
PR0300147,MEXICO BAKERY SUPER MERCADO #2,601 BIRD AV,San Jose,95125,37.3200334,-121.8980387,06085501800,142235,6.8,underserved,6
PR0300149,CHERRY LIQUORS,1443 BIRD AV,San Jose,95125,37.3063617,-121.8915175,06085502400,222311,6.8,moderate,3
PR0300150,GREAT WALL RESTAURANT,1455 BIRD AV,San Jose,95125,37.3065907,-121.8906286,06085502400,222311,6.8,moderate,3
PR0300152,ZEST FOOD INC,10881 S BLANEY AV # B,Cupertino,95014,37.310345,-122.023274,06085508005,206389,5.4,moderate,5
PR0300153,LEONARD HERMAN SCHOOL,5955 BLOSSOM AV,San Jose,95123,37.239246,-121.839816,06085512047,180909,3.4,moderate,4
PR0300154,BLOSSOM HILL SCHOOL,16400 BLOSSOM HILL RD,Los Gatos,95032,37.234767,-121.955983,06085506900,222166,3.2,moderate,3
PR0300156,7-ELEVEN #14251A,815 BING DR,Santa Clara,95051,37.338683,-121.992777,06085505403,182500,6.1,underserved,6
PR0300157,YUM YUM DONUTS FRANCHISE #9038-D,400 BLOSSOM HILL RD,San Jose,95123,37.2512679,-121.8284601,06085512029,180725,1.7,well_served,2
PR0300158,DOWNER SQUARE BOTTLE SHOP,402 BLOSSOM HILL RD,San Jose,95123,37.251167,-121.828488,06085512029,180725,1.7,well_served,2
PR0300159,PEARL RIVER CHINESE RESTAURANT,414 BLOSSOM HILL RD,San Jose,95123,37.2512678,-121.8284647,06085512029,180725,1.7,well_served,2
PR0300160,JACK IN THE BOX #445,425 BLOSSOM HILL RD,San Jose,95123,37.251708,-121.829303,06085512023,106684,5.6,underserved,8
PR0300161,SMART & FINAL #829 - GROCERY,430 BLOSSOM HILL RD,San Jose,95123,37.250404,-121.82947,06085512029,180725,1.7,well_served,2
PR0300162,ANGELO'S ITALIAN RESTAURANT,436 BLOSSOM HILL RD,San Jose,95123,37.251213,-121.8298185,06085512029,180725,1.7,well_served,2
PR0300163,MCDONALD'S RESTAURANT #4588,456 BLOSSOM HILL RD,San Jose,95123,37.250841,-121.831813,06085512026,160156,3.4,moderate,3
PR0300164,MY KITCHEN,445 BLOSSOM HILL RD # K,San Jose,95123,37.2514082,-121.8300602,06085512023,106684,5.6,underserved,8
PR0300168,PIONEER HIGH SCHOOL,1290 BLOSSOM HILL RD,San Jose,95118,37.247299,-121.884191,06085511915,81458,16.7,highly_underserved,9
PR0300169,BBQ PIT,1349 BLOSSOM HILL RD,San Jose,95118,37.246409,-121.886901,06085502910,110091,11.7,underserved,8
PR0300170,MCDONALD'S RESTAURANT #4472,1365 BLOSSOM HILL RD,San Jose,95118,37.245681,-121.887964,06085511915,81458,16.7,highly_underserved,9
PR0300172,MANDARIN HOUSE,1375 BLOSSOM HILL RD STE 12,San Jose,95118,37.2449515,-121.8900859,06085511915,81458,16.7,highly_underserved,9
PR0300173,GET N GO,1763 BLOSSOM HILL RD,San Jose,95124,37.236381,-121.914497,06085506803,194219,6.7,moderate,5
PR0300174,TEA GARDEN CHINESE KITCHEN,14030 BLOSSOM HILL RD,Los Gatos,95032,37.2348349,-121.9507496,06085506900,222166,3.2,moderate,3
PR0300175,ALTA VISTA ELEMENTARY SCHOOL,200 BLOSSOM VALLEY DR,Los Gatos,95032,37.239719,-121.940633,06085506804,221071,2.5,moderate,3
PR0300176,SAFEWAY #767,6150 BOLLINGER RD,San Jose,95129,37.3099826,-122.011886,06085507903,223571,2.5,moderate,3
PR0300177,99 HEALTHY WORLD,6136 BOLLINGER RD,San Jose,95129,37.310384,-122.011106,06085507903,223571,2.5,moderate,3
PR0300179,GUADALAJARA MARKET,829 BORREGAS AV,Sunnyvale,94085,37.39707,-122.022918,06085509001,162981,7.6,underserved,6
PR0300181,BRANHAM LOUNGE,1116 BRANHAM LN,San Jose,95118,37.2626386,-121.877617,06085502909,101607,5.8,underserved,6
PR0300183,JOHN MUIR JR HIGH SCHOOL,1260 BRANHAM LN,San Jose,95118,37.261122,-121.883186,06085502909,101607,5.8,underserved,6
PR0300184,7-ELEVEN FOOD STORE #14290,1421 BRANHAM LN,San Jose,95118,37.259141,-121.891145,06085502907,213056,5.8,well_served,2
PR0300185,BRET HARTE JR HIGH,7050 BRET HARTE DR,San Jose,95120,37.212145,-121.846164,06085511907,250001,0.9,moderate,4
PR0300186,RIVER GLEN ELEMENTARY SCHOOL,1088 BROADWAY,San Jose,95125,37.31091,-121.901871,06085501800,142235,6.8,underserved,6
PR0300187,REDWOOD STORE,20121 BROADWAY,Los Gatos,95030,37.158522,-121.98651,06085511800,196786,4.0,moderate,4
PR0300188,JOHN F KENNEDY MIDDLE SCHOOL,821 BUBB RD,Cupertino,95014,37.311803,-122.050603,06085507702,250001,5.3,moderate,4
PR0300189,GUSSIE M BAKER SCHOOL,4845 BUCKNALL RD,San Jose,95130,37.283518,-121.985751,06085506604,191843,2.7,well_served,2
PR0300190,ALEX'S 49ER INN,2214 BUSINESS CL,San Jose,95128,37.322494,-121.932802,06085502001,94794,13.4,highly_underserved,9
PR0300193,SPRING VALLEY GOLF COURSE-CLUB,3441 CALAVERAS BL,Milpitas,95035,37.447589,-121.850245,06085504424,153333,5.0,underserved,7
PR0300194,SAV-MORE LIQUOR STORE,689 CALDERON AV,Mountain View,94041,37.38514,-122.075612,06085509700,209607,4.6,underserved,6
PR0300196,RENE-ROSE ISLAND CUISINE,621 CALIENTE DR,Sunnyvale,94086,37.3910819,-122.0134529,06085508900,156726,8.0,underserved,6
PR0300197,MOLLIE STONES MARKET,164 CALIFORNIA AV,Palo Alto,94306,37.428944,-122.143391,06085511501,173470,10.3,underserved,7
PR0300201,NAMASTE INDIAN CUISINE,447 CALIFORNIA AV,Palo Alto,94306,37.4258721,-122.1451764,06085511501,173470,10.3,underserved,7
PR0300202,LA BODEGUITA DEL MEDIO,463 CALIFORNIA AV,Palo Alto,94306,37.4256413,-122.1453639,06085511501,173470,10.3,underserved,7
PR0300203,CALIFORNIA STREET MARKET,1595 CALIFORNIA ST,Mountain View,94041,37.394673,-122.089417,06085509500,178892,7.9,underserved,8
PR0300204,LIQUOR & FOOD MART,2339 CALIFORNIA ST,Mountain View,94040,37.4022939,-122.1060452,06085509404,203864,3.7,moderate,4
PR0300206,CHINA WOK RESTAURANT,2633 CALIFORNIA ST,Mountain View,94040,37.406042,-122.111857,06085509401,149258,7.7,underserved,8
PR0300207,7-ELEVEN 2366-14333E,2640 CALIFORNIA ST,Mountain View,94040,37.406533,-122.111764,06085509401,149258,7.7,underserved,8
PR0300208,JACK IN THE BOX #426,1301 CAMDEN AV,Campbell,95008,37.2695259,-121.9459112,06085502703,145541,10.8,underserved,6
PR0300209,WIENERSCHNITZEL #33,1330 CAMDEN AV,Campbell,95008,37.2699007999,-121.945289,06085502701,133658,7.4,moderate,5
PR0300210,FOSTERS FREEZE,1360 CAMDEN AV,Campbell,95008,37.269343,-121.944517,06085502701,133658,7.4,moderate,5
PR0300212,HOUSE OF PHO,1852 CAMDEN AV,San Jose,95124,37.2614139,-121.9206972,06085502800,185962,8.6,moderate,5
PR0300213,ROUND TABLE PIZZA #879,5385 CAMDEN AV,San Jose,95124,37.241134,-121.9046654,06085506803,194219,6.7,moderate,5
PR0300214,LELAND HIGH SCHOOL,6677 CAMDEN AV,San Jose,95120,37.219489,-121.844854,06085511907,250001,0.9,moderate,4
PR0300215,CASK N FLASK,14520 CAMDEN AV,San Jose,95124,37.261633,-121.922548,06085502800,185962,8.6,moderate,5
PR0300216,7-ELEVEN #14278G,14700 CAMDEN AV,San Jose,95124,37.261591,-121.92885,06085502800,185962,8.6,moderate,5
PR0300218,7 ELEVEN FOOD STORE #2367-14262D,5745 CAMDEN AV,San Jose,95124,37.232535,-121.903696,06085506900,222166,3.2,moderate,3
PR0300219,MANLEY'S DONUT,5721 CAMDEN AV,San Jose,95124,37.2345321,-121.9035982,06085506900,222166,3.2,moderate,3
PR0300220,CAMPBELL NUTRITION CENTER,1 W CAMPBELL AV,Campbell,95008,37.28715,-121.949866,06085506503,111225,5.9,underserved,7
PR0300221,CARDIFF LOUNGE,260 E CAMPBELL AV,Campbell,95008,37.286764,-121.945302,06085506502,143500,5.0,moderate,3
PR0300222,7 STARS BAR & GRILL,400 E CAMPBELL AV,Campbell,95008,37.2870447,-121.9428300999,06085506502,143500,5.0,moderate,3
PR0300224,JACK IN THE BOX #412,1450 W CAMPBELL AV,Campbell,95008,37.285778,-121.975755,06085506603,250001,6.2,underserved,7
PR0300226,BASKIN ROBBINS ICE CREAM-1720,1720 W CAMPBELL AV,Campbell,95008,37.285294,-121.97913,06085506604,191843,2.7,well_served,2
PR0300227,MT. PLEASANT SCHOOL,14275 CANDLER AV,San Jose,95127,37.354511,-121.810049,06085503508,125469,10.3,highly_underserved,9
PR0300230,CUBA LIBRE,284 N CAPITOL AV,San Jose,95127,37.3693069,-121.8420577,06085503903,131806,9.0,underserved,7
PR0300232,COLOSSEUM NEW YORK PIZZA LLC,761 E CAPITOL AV,Milpitas,95035,37.4081855,-121.8895875,06085504509,181165,2.5,well_served,2
PR0300233,THE NOTE LOUNGE,765 E CAPITOL AV,Milpitas,95035,37.4081594,-121.8895454,06085504509,181165,2.5,well_served,2
PR0300234,LEE'S SUPERMARKET MILPITAS,777 E CAPITOL AV,Milpitas,95035,37.407931,-121.889002,06085504509,181165,2.5,well_served,2
PR0300235,S & S MARKET #1,1148 S CAPITOL AV,San Jose,95127,37.349886,-121.825874,06085503510,135926,4.9,moderate,5
PR0300240,CARLTON SCHOOL,2421 CARLTON AV,San Jose,95124,37.248336,-121.946471,06085506802,202796,1.3,moderate,5
PR0300241,IDELLA LIETZ ELEMENTARY SCHOOL,5300 CARTER AV,San Jose,95118,37.242021,-121.902156,06085502906,126438,6.7,underserved,7
PR0300245,AGAVE,194 CASTRO ST,Mountain View,94043,37.3939279,-122.0789193,06085509600,188676,14.7,underserved,6
PR0300246,RISTORANTE DON GIOVANNI,235 CASTRO ST,Mountain View,94041,37.393333,-122.079134,06085509600,188676,14.7,underserved,6
PR0300247,NEW MONGOLIAN BBQ,304 CASTRO ST,Mountain View,94041,37.3923916,-122.0799607,06085509600,188676,14.7,underserved,6
PR0300248,KIRIN BISTRO INC,485 CASTRO ST,Mountain View,94041,37.390485,-122.080622,06085509600,188676,14.7,underserved,6
PR0300252,CAPRI SCHOOL,850 CHAPMAN DR,Campbell,95008,37.26667,-121.964809,06085506703,154149,5.1,underserved,7
PR0300253,STEVENSON HOUSE - LA COMIDA SENIOR NUTRITION PROGRAM,455 E CHARLESTON RD,Palo Alto,94306,37.419211,-122.113382,06085510803,250001,7.0,underserved,7
PR0300255,CAMPBELL SCHOOL OF INNOVATION,295 CHERRY LN,Campbell,95008,37.28365,-121.954864,06085506503,111225,5.9,underserved,7
PR0300256,BRACHER SCHOOL,2700 CHROMITE,Santa Clara,95051,37.367226,-121.976328,06085505301,200781,5.7,underserved,6
PR0300257,CLUB RODEO BAR & GRILL,610 COLEMAN AV,San Jose,95110,37.341641,-121.908545,06085500300,107431,9.6,underserved,7
PR0300258,CLUB RODEO/RIO,640 COLEMAN AV,San Jose,95110,37.341399,-121.9092873,06085500300,107431,9.6,underserved,7
PR0300261,ROUND TABLE PIZZA,702 COLORADO AV,Palo Alto,94303,37.4331051,-122.1283971,06085511000,250001,1.8,moderate,3
PR0300262,7-ELEVEN FOOD STORE #2234-14315G,708 COLORADO ST,Palo Alto,94303,37.433075,-122.128188,06085511000,250001,1.8,moderate,3
PR0300263,KIPP DCP,1250 S KING RD,San Jose,95122,37.3380685,-121.8413104,06085503504,139180,6.5,underserved,6
PR0300265,WILLOW GLEN HIGH SCHOOL,2001 COTTLE AV,San Jose,95125,37.290783,-121.89591,06085502500,225694,4.6,moderate,3
PR0300266,WILLOW GLEN MIDDLE SCHOOL,2105 COTTLE AV,San Jose,95125,37.289862,-121.895374,06085502500,225694,4.6,moderate,3
PR0300267,COUNTRY LANE SCHOOL,5140 COUNTRY LN,San Jose,95129,37.298378,-121.991767,06085506202,189032,3.8,moderate,5
PR0300268,CHRISTOPHER SCHOOL,565 COYOTE RD,San Jose,95111,37.279498,-121.818004,06085503208,163558,17.0,underserved,8
PR0300273,WILLIAM C OVERFELT HIGH SCHOOL,1835 CUNNINGHAM AV,San Jose,95122,37.331912,-121.829211,06085503504,139180,6.5,underserved,6
PR0300276,DRY CREEK LIQUORS,1886 CURTNER AV,San Jose,95124,37.275532,-121.923272,06085502901,135846,8.0,underserved,7
PR0300277,LYNHAVEN ELEMENTARY SCHOOL,881 S CYPRESS AV,San Jose,95117,37.311162,-121.959915,06085506302,182908,3.9,underserved,6
PR0300278,CASTILLEJA SCHOOL,1310 BRYANT ST,Palo Alto,94301,37.439434,-122.151594,06085511400,250001,1.4,moderate,4
PR0300279,ABRAHAM LINCOLN HIGH SCHOOL,555 DANA AV,San Jose,95126,37.32857,-121.923221,06085500500,166514,3.5,underserved,7
PR0300281,LA ESPUELA MEXICAN FOOD,854 W DANA ST,Mountain View,94041,37.3928168,-122.0803531,06085509600,188676,14.7,underserved,6
PR0300282,DARTMOUTH MIDDLE SCHOOL,5575 DARTMOUTH DR,San Jose,95118,37.239767,-121.896484,06085511916,191735,3.8,underserved,6
PR0300283,DAVES AVENUE ELEMENTARY SCHOOL,17770 DAVES AV,Monte Sereno,95030,37.240656,-121.980855,06085507206,250001,1.1,moderate,3
PR0300286,DEL MAR HIGH SCHOOL-GYM CONCESSIONS,1224 DEL MAR AV,San Jose,95128,37.303921,-121.9285004,06085502104,102105,9.6,underserved,8
PR0300287,DELMAS MARKET,101 DELMAS AV,San Jose,95110,37.330137,-121.89778,06085500800,151357,10.9,underserved,8
PR0300288,STARBRITE MARKET,893 DELMAS AV,San Jose,95125,37.317199,-121.893265,06085501800,142235,6.8,underserved,6
PR0300289,CHEER LITRE LIQUORS,104 DEMPSEY RD,Milpitas,95035,37.434443,-121.886092,06085504418,116310,6.3,underserved,7
PR0300290,STRATFORD SCHOOL,5200 DENT AV,San Jose,95118,37.248746,-121.897523,06085502906,126438,6.7,underserved,7
PR0300291,SAN MARTIN MARKET,13320 DEPOT ST,San Martin,95046,37.085784,-121.609498,06085512401,197540,12.3,underserved,6
PR0300292,SPICY WAY,42 DIXON RD,Milpitas,95035,37.4577951,-121.9106824,06085504422,141111,9.7,underserved,7
PR0300293,HANMARU KOREAN CUISINE,50 E DIXON RD,Milpitas,95035,37.4577835,-121.9105145,06085504422,141111,9.7,underserved,7
PR0300294,EASTERBROOK DISCOVERY SCHOOL,4835 DOYLE RD,San Jose,95129,37.303511,-121.986673,06085506202,189032,3.8,moderate,5
PR0300295,BOOKSIN ELEMENTARY SCHOOL,1590 DRY CREEK RD,San Jose,95125,37.288734,-121.9068,06085502500,225694,4.6,moderate,3
PR0300297,STOCKLMEIR CENTRAL KITCHEN,592 DUNHOLME WY,Sunnyvale,94087,37.34472,-122.026707,06085508203,250001,3.4,moderate,3
PR0300305,CAROLINE DAVIS SCHOOL,5035 EDENVIEW DR,San Jose,95111,37.266587,-121.812032,06085512042,111875,9.6,highly_underserved,11
PR0300310,SUDAM KOREAN CUISINE,4546 EL CAMINO REAL A5,Los Altos,94022,37.400591,-122.115012,06085510500,250001,5.2,moderate,5
PR0300313,JACK IN THE BOX #421,4896 EL CAMINO REAL,Los Altos,94022,37.3983578,-122.1087885,06085510400,250001,1.7,well_served,1
PR0300314,AMBER INDIA RESTAURANT,4926 EL CAMINO REAL,Los Altos,94022,37.398045,-122.107636,06085510400,250001,1.7,well_served,1
PR0300316,WALGREENS #0689,121 E EL CAMINO REAL,Mountain View,94040,37.379743,-122.072096,06085509902,222955,10.9,underserved,6
PR0300317,JACK IN THE BOX #453,200 W EL CAMINO REAL,Mountain View,94040,37.3810619,-122.0742143,06085509700,209607,4.6,underserved,6
PR0300318,CLYDE'S LIQUOR,239 W EL CAMINO REAL,Mountain View,94040,37.382857,-122.078566,06085509802,220694,7.6,moderate,5
PR0300322,BASKIN ROBBINS,703 E EL CAMINO REAL,Mountain View,94040,37.3771039,-122.0650859,06085509110,192045,5.8,underserved,6
PR0300324,FOOD & BEVERAGES,820 E EL CAMINO REAL,Mountain View,94040,37.376431,-122.062301,06085509111,135398,7.6,highly_underserved,9
PR0300328,GIORGIO'S ITALIAN GRILL & PIZZERIA,939 W EL CAMINO REAL,Mountain View,94040,37.386343,-122.085805,06085509801,167957,1.5,moderate,5
PR0300329,PASSAGE TO INDIA,1100 W EL CAMINO REAL,Mountain View,94040,37.387713,-122.087078,06085509600,188676,14.7,underserved,6
PR0300330,BASKIN ROBBINS ICE CREAM,1249 W EL CAMINO REAL,Mountain View,94040,37.3879791,-122.0890219,06085509801,167957,1.5,moderate,5
PR0300331,LE PETIT BISTRO,1405 W EL CAMINO REAL,Mountain View,94040,37.388699,-122.090736,06085509801,167957,1.5,moderate,5
PR0300332,CHICKEN G'S,1414 W EL CAMINO REAL,Mountain View,94040,37.3890925,-122.0904304,06085509500,178892,7.9,underserved,8
PR0300334,RATHORE'S KITCHEN,1711 W EL CAMINO REAL # B,Mountain View,94040,37.390428,-122.094015,06085509801,167957,1.5,moderate,5
PR0300337,FIVE GUYS BURGERS & FRIES,2098 EL CAMINO REAL,Mountain View,94040,37.396034,-122.101385,06085509403,177847,8.7,underserved,6
PR0300339,SUNDANCE THE STEAKHOUSE,1921 EL CAMINO REAL,Palo Alto,94306,37.42855,-122.149552,06085511501,173470,10.3,underserved,7
PR0300341,JACK IN THE BOX #455,2280 EL CAMINO REAL,Palo Alto,94306,37.425401,-122.147282,06085511501,173470,10.3,underserved,7
PR0300347,SHOW DE CARNES,3398 EL CAMINO REAL,Palo Alto,94306,37.419577,-122.1355513,06085510700,182266,3.3,moderate,4
PR0300348,DRIFTWOOD - MARKET,3450 EL CAMINO REAL,Palo Alto,94306,37.419229,-122.13516,06085511705,250001,2.3,well_served,1
PR0300349,DUMPLING CITY,3487 EL CAMINO REAL,Palo Alto,94306,37.419445,-122.13463,06085510700,182266,3.3,moderate,4
PR0300350,HONG KONG RESTAURANT,3691 EL CAMINO REAL,Palo Alto,94306,37.418583,-122.132776,06085510700,182266,3.3,moderate,4
PR0300352,ERNIE'S LIQUORS,3870 EL CAMINO REAL,Palo Alto,94306,37.41708,-122.130906,06085510600,198068,18.8,underserved,6
PR0300353,STARBUCKS COFFEE COMPANY,3885 EL CAMINO REAL,Palo Alto,94306,37.417506,-122.130214,06085510700,182266,3.3,moderate,4
PR0300354,SIAM FINE THAI CUISINE,3924 EL CAMINO REAL,Palo Alto,94306,37.416311,-122.129829,06085510600,198068,18.8,underserved,6
PR0300355,ZOMBIERUNNER COFFEE,3990 EL CAMINO REAL # C,Palo Alto,94306,37.415617,-122.128821,06085510600,198068,18.8,underserved,6
PR0300357,SO GONG DONG TOFU HOUSE,4127 EL CAMINO REAL A,Palo Alto,94306,37.4136,-122.125394,06085510700,182266,3.3,moderate,4
PR0300360,HOBEE'S PALO ALTO,4224 EL CAMINO REAL,Palo Alto,94306,37.4086625,-122.1220235,06085510600,198068,18.8,underserved,6
PR0300361,ELK'S LODGE #1471,4249 EL CAMINO REAL,Palo Alto,94306,37.427312,-122.148852,06085511501,173470,10.3,underserved,7
PR0300363,DINAH'S POOLSIDE RESTAURANT,4261 EL CAMINO REAL,Palo Alto,94306,37.407368,-122.119909,06085510700,182266,3.3,moderate,4
PR0300364,JACK IN THE BOX #423,911 EL CAMINO REAL,Santa Clara,95050,37.3548228,-121.9463535,06085505600,140263,20.1,underserved,8
PR0300365,SAVE MAX FOOD & LIQUOR,1191 EL CAMINO REAL,Santa Clara,95050,37.353766,-121.949417,06085505600,140263,20.1,underserved,8
PR0300366,KENTUCKY FRIED CHICKEN #154,1353 EL CAMINO REAL,Santa Clara,95050,37.353484,-121.951258,06085505600,140263,20.1,underserved,8
PR0300367,SWARAJ INDIA,1855 EL CAMINO REAL,Santa Clara,95050,37.3527041,-121.9579109,06085505202,164928,19.1,underserved,8
PR0300369,SUBWAY YP,2068 EL CAMINO REAL,Santa Clara,95050,37.3522874,-121.9615194,06085505303,124491,4.8,moderate,5
PR0300381,PAV BHAJI AND MORE,2695 EL CAMINO REAL,Santa Clara,95051,37.352771,-121.975258,06085505302,213365,6.3,moderate,5
PR0300383,GOLDEN WANG DONKATSU,2910 EL CAMINO REAL,Santa Clara,95051,37.351864,-121.979278,06085505401,162000,14.4,underserved,6
PR0300384,MAIWAND MARKET OF SANTA CLARA,2915 EL CAMINO REAL,Santa Clara,95051,37.352508,-121.979607,06085505304,226731,5.7,moderate,3
PR0300385,BIG MUG COFFEE ROASTER,3014 EL CAMINO REAL,Santa Clara,95051,37.352201,-121.981099,06085505401,162000,14.4,underserved,6
PR0300386,SEO RAI,3044 EL CAMINO REAL,Santa Clara,95051,37.3522748,-121.9812822,06085505401,162000,14.4,underserved,6
PR0300387,SULBING CAFE,3050 EL CAMINO REAL,Santa Clara,95051,37.3518474,-121.9818129999,06085505401,162000,14.4,underserved,6
PR0300388,OBOK RESTAURANT,3072 EL CAMINO REAL,Santa Clara,95051,37.352201,-121.981919,06085505401,162000,14.4,underserved,6
PR0300392,CHUNGDAM RESTAURANT,3180 EL CAMINO REAL,Santa Clara,95051,37.3520578,-121.9843445,06085505401,162000,14.4,underserved,6
PR0300393,TONG SOON GARDEN RESTAURANT,3240 EL CAMINO REAL,Santa Clara,95051,37.3522686,-121.9857574,06085505401,162000,14.4,underserved,6
PR0300394,LUCKY'S DISKOUNT LIQUOR,3290 EL CAMINO REAL,Santa Clara,95051,37.352227,-121.986321,06085505401,162000,14.4,underserved,6
PR0300395,SEE'S CANDIES #53,3310 EL CAMINO REAL,Santa Clara,95050,37.352228,-121.987132,06085505401,162000,14.4,underserved,6
PR0300396,JACK IN THE BOX #401,3367 EL CAMINO REAL,Santa Clara,95051,37.352767,-121.988144,06085505305,205550,6.3,moderate,5
PR0300397,HANA BOTTLE SHOP,3425 EL CAMINO REAL,Santa Clara,95051,37.3526776,-121.9900021,06085505305,205550,6.3,moderate,5
PR0300400,SHAWARMA FALAFEL SHAQ,3475 E EL CAMINO REAL,Santa Clara,95051,37.352908,-121.991707,06085505305,205550,6.3,moderate,5
PR0300401,DENNY'S RESTAURANT,3715 EL CAMINO REAL,Santa Clara,95051,37.35277,-121.998335,06085508507,174267,10.6,underserved,6
PR0300402,ROOSTER T FEATHERS COMEDY CLUB,157 W EL CAMINO REAL,Sunnyvale,94087,37.3662241,-122.0301908,06085508509,161270,9.2,underserved,8
PR0300403,MARIE CALLENDER'S RESTAURANT AND BAKERY,751 E EL CAMINO REAL,Sunnyvale,94087,37.358299,-122.019977,06085508510,174167,14.2,underserved,7
PR0300404,LOPEZ TAQUERIA 3,808 W EL CAMINO REAL,Sunnyvale,94087,37.3697235,-122.0417982,06085508404,213393,5.1,well_served,1
PR0300408,THE PATIO,948 E EL CAMINO REAL,Sunnyvale,94087,37.351788,-122.011852,06085508205,213981,2.9,well_served,1
PR0300411,CHAAT BHAVAN,976 E EL CAMINO REAL,Sunnyvale,94087,37.351815,-122.009378,06085508205,213981,2.9,well_served,1
PR0300413,408 LIQUOR,1053 E EL CAMINO REAL,Sunnyvale,94087,37.35242,-122.004548,06085508508,133065,10.3,underserved,8
PR0300415,SPORTY'S BIKINI BAR,1053 E EL CAMINO REAL 6,Sunnyvale,94086,37.352989,-122.004326,06085508508,133065,10.3,underserved,8
PR0300416,EAT MORE PHO,1066 E EL CAMINO REAL,Sunnyvale,94087,37.351658,-122.00315,06085508205,213981,2.9,well_served,1
PR0300417,ASIAN STREET EATERY,1146 W EL CAMINO REAL,Sunnyvale,94087,37.372969,-122.054772,06085508401,198816,1.7,moderate,3
PR0300418,PEPPERMINT INDIAN RESTAURANT,1169 W EL CAMINO REAL,Sunnyvale,94087,37.373836,-122.054837,06085509106,159951,6.2,underserved,7
PR0300419,CLUB RED,1183 W EL CAMINO REAL,Sunnyvale,94087,37.373805,-122.055338,06085509106,159951,6.2,underserved,7
PR0300420,GALAMART,1193 W EL CAMINO REAL,Sunnyvale,94086,37.373894,-122.055647,06085509106,159951,6.2,underserved,7
PR0300421,CINELUX ALMADEN CINEMA,2306 ALMADEN RD,San Jose,95125,37.290477,-121.880189,06085503124,124229,15.6,underserved,8
PR0300422,VAHL'S RESTAURANT,1513 EL DORADO ST,Alviso,95002,37.425794,-121.977011,06085504602,121953,7.5,moderate,5
PR0300423,7-ELEVEN #14300F,284 S 11TH ST,San Jose,95112,37.336884,-121.876594,06085501300,145260,13.5,highly_underserved,9
PR0300425,MCDONALD'S RESTAURANT #1528,952 EL MONTE AV,Mountain View,94040,37.391456,-122.096336,06085509801,167957,1.5,moderate,5
PR0300429,BAYLANDS CAFE,1875 E EMBARCADERO RD,Palo Alto,94303,37.452739,-122.1148322,06085504601,74250,10.1,underserved,7
PR0300430,HE & C TEA POT,544 EMERSON ST,Palo Alto,94301,37.44396,-122.162065,06085511302,139167,18.2,underserved,8
PR0300431,PENINSULA FOUNTAIN & GRILL,566 EMERSON ST,Palo Alto,94301,37.4440231,-122.1617693,06085511302,139167,18.2,underserved,8
PR0300433,BELLARMINE COLLEGE PREP,850 ELM ST,San Jose,95126,37.341519,-121.918643,06085500400,152973,2.4,underserved,7
PR0300438,SANTA TERESA SCHOOL,6200 ENCINAL DR,San Jose,95119,37.234844,-121.795865,06085512059,176250,5.2,moderate,4
PR0300439,RED HOT WOK,10074 E ESTATES AV,Cupertino,95014,37.32224,-122.014761,06085508006,240833,3.3,well_served,0
PR0300443,THE DONS DELI,620 E EVELYN AV,Sunnyvale,94086,37.372905,-122.020645,06085508705,189571,1.7,underserved,6
PR0300448,BERTS STADIUM SPORTS BAR,208 S FAIR OAKS AV,Sunnyvale,94086,37.373658,-122.020654,06085508705,189571,1.7,underserved,6
PR0300450,CHAVEZ SUPERMARKET,666 N FAIR OAKS AV,Sunnyvale,94085,37.3901699,-122.0139058,06085508900,156726,8.0,underserved,6
PR0300451,3 POTRILLOS TAQUERIA,670 N FAIR OAKS AV,Sunnyvale,94085,37.364529,-122.024353,06085508509,161270,9.2,underserved,8
PR0300452,FIESTA LIQUOR,672 N FAIR OAKS AV,Sunnyvale,94085,37.3904296,-122.0138885999,06085508900,156726,8.0,underserved,6
PR0300453,EL RANCHO FOODS,211 1ST ST,Gilroy,95020,37.0141438,-121.5755193,06085512513,84934,5.2,underserved,6
PR0300454,EL RANCHO FOODS - BAKERY,211 1ST ST,Gilroy,95020,37.0141438,-121.5755193,06085512513,84934,5.2,underserved,6
PR0300455,TAQUERIA Y MARISCOS CHAPALA,303 1ST ST,Gilroy,95020,37.0139702,-121.5762282,06085512513,84934,5.2,underserved,6
PR0300456,7 ELEVEN 14301F,691 1ST ST,Gilroy,95020,37.0138797,-121.5814381,06085512513,84934,5.2,underserved,6
PR0300459,STANDARD LIQUOR,303 1ST ST,Los Altos,94022,37.377065,-122.116921,06085510300,250001,3.2,well_served,1
PR0300460,DRAEGER'S SUPERMARKET INC,342 1ST ST,Los Altos,94022,37.376442,-122.116974,06085510300,250001,3.2,well_served,1
PR0300461,KATHMANDU CUISINE,376 1ST ST,Los Altos,94022,37.3757611,-122.1164507,06085510300,250001,3.2,well_served,1
PR0300463,TESKE'S GERMANIA RESTAURANT,255 N 1ST ST,San Jose,95113,37.3319265,-121.8874546,06085500800,151357,10.9,underserved,8
PR0300464,INTERNATIONAL HOUSE OF PANCAKES,644 N 1ST ST,San Jose,95112,37.348031,-121.898962,06085500200,115541,15.4,highly_underserved,10
PR0300466,HYDE PARK LIQUORS,1330 N 1ST ST,San Jose,95112,37.3607932,-121.9083528,06085505100,115395,14.5,highly_underserved,9
PR0300467,HOUSE OF GENJI,1335 N 1ST ST,San Jose,95112,37.3608395,-121.9091225,06085505100,115395,14.5,highly_underserved,9
PR0300469,ORIGINAL JOE'S,301 S 1ST ST,San Jose,95113,37.3314258,-121.8870736,06085500800,151357,10.9,underserved,8
PR0300471,THE CONTINENTAL BAR,349 S 1ST ST,San Jose,95113,37.33054,-121.886735,06085500800,151357,10.9,underserved,8
PR0300472,RESTAURANT LA CEIBA,799 S 1ST ST,San Jose,951132814,37.323971,-121.881927,06085501700,94736,13.1,underserved,8
PR0300476,WIENERSCHNITZEL #134,935 S 1ST ST,San Jose,95110,37.321888,-121.879914,06085501700,94736,13.1,underserved,8
PR0300478,TRINE'S RESTAURANT,995 S 1ST ST,San Jose,95110,37.3211076,-121.8787163,06085501700,94736,13.1,underserved,8
PR0300480,BURGER CORNER,1101 S 1ST ST,San Jose,95110,37.319673,-121.877803,06085503113,95625,4.6,underserved,8
PR0300484,6 TO LATE,2784 MONTEREY RD,San Jose,95111,37.2925703,-121.8502152,06085503222,122526,4.5,underserved,8
PR0300485,LA CANASTA MARKET,3074 MONTEREY HY,San Jose,95111,37.288113,-121.845386,06085503219,60451,5.7,underserved,7
PR0300488,AUGUST BOEGER SCHOOL,1944 FLINT AV,San Jose,95127,37.347146,-121.80134,06085503509,151786,4.5,underserved,7
PR0300490,M TAPAS KOREA,3546 FLORA VISTA AV,Santa Clara,95051,37.353233,-121.9925555,06085505305,205550,6.3,moderate,5
PR0300492,O'CONNOR HOSPITAL,2105 FOREST AV,San Jose,95128,37.328293,-121.937409,06085500500,166514,3.5,underserved,7
PR0300494,BASKIN ROBBINS,2467 FOREST AV,San Jose,95128,37.3269919,-121.9491231,06085505800,169722,4.2,well_served,2
PR0300495,CHEVERE LATIN MARKET,198 N 14TH ST,San Jose,95112,37.345364,-121.879099,06085501200,108913,13.5,highly_underserved,10
PR0300496,SABA GRILL,205 N 4TH ST,San Jose,95112,37.34072,-121.889903,06085501000,58775,19.4,highly_underserved,9
PR0300497,LA VICTORIA #5,291 N 4TH ST,San Jose,95112,37.341792,-121.890519,06085501000,58775,19.4,highly_underserved,9
PR0300498,KELLY'S LIQUOR STORE,498 N 4TH ST,San Jose,95112,37.346242,-121.893627,06085501101,105138,22.9,highly_underserved,9
PR0300499,SMILE MARKET,499 N 4TH ST,San Jose,95112,37.346115,-121.893891,06085501101,105138,22.9,highly_underserved,9
PR0300500,FOSTER FREEZE-698,698 N 4TH ST,San Jose,95112,37.3505874,-121.8969817,06085501101,105138,22.9,highly_underserved,9
PR0300501,WIENERSCHNITZEL #122,702 N 4TH ST,San Jose,95112,37.350884,-121.89695,06085500100,163061,6.0,underserved,6
PR0300502,HUNAN TASTE,998 N 4TH ST,San Jose,95112,37.3566503,-121.9015077,06085500100,163061,6.0,underserved,6
PR0300503,HYDE PARK LOUNGE,1070 N 4TH ST,San Jose,95112,37.3585236,-121.9026013,06085500100,163061,6.0,underserved,6
PR0300504,LA VICTORIA TAQUERIA #6,1415 N 4TH ST,San Jose,95112,37.363467,-121.907038,06085505100,115395,14.5,highly_underserved,9
PR0300505,EVERGREEN SCHOOL,3010 FOWLER RD,San Jose,95135,37.310745,-121.779499,06085503329,217369,7.4,underserved,6
PR0300506,SUPREME DONUTS,1093 FOXWORTHY AV,San Jose,95118,37.2784936,-121.8791862,06085503002,139863,4.4,underserved,7
PR0300507,ZANOTTO'S WILLOW GLEN-SUPER MARKET,1421 FOXWORTHY AV,San Jose,95118,37.275065,-121.891849,06085503002,139863,4.4,underserved,7
PR0300508,GIORGIO'S PIZZA HOUSE,1445 FOXWORTHY AV,San Jose,95118,37.275632,-121.891637,06085503002,139863,4.4,underserved,7
PR0300509,MEXICO LINDO RESTAURANT,1415 FOXWORTHY AV,San Jose,95118,37.2751755,-121.8909325,06085503002,139863,4.4,underserved,7
PR0300511,GROCERY OUTLET SOUTH SAN JOSE,1665 FOXWORTHY AV,San Jose,95124,37.2704618,-121.9068264,06085502902,207614,2.3,moderate,4
PR0300513,BRONCOS,1251 FRANKLIN SQ,Santa Clara,95050,37.3484116,-121.9484341,06085505600,140263,20.1,underserved,8
PR0300514,SANTA CLARA LIQUORS,1001 MONROE ST,Santa Clara,95050,37.348655,-121.948087,06085505600,140263,20.1,underserved,8
PR0300517,MOM'S BIRYANI,103 E FREMONT AV,Sunnyvale,94087,37.3529862,-122.0317395999,06085508503,167763,8.0,underserved,6
PR0300520,JAKES OF SUNNYVALE,174 E FREMONT AV,Sunnyvale,94087,37.3520547,-122.0313643,06085508203,250001,3.4,moderate,3
PR0300524,TOM'S DEPOT,991 FREMONT AV,Los Altos,94024,37.3528433,-122.0873802,06085510001,250001,2.2,moderate,3
PR0300526,7-ELEVEN FOOD STORE #14281C,2170 FRUITDALE AV,San Jose,95128,37.310551,-121.931326,06085502104,102105,9.6,underserved,8
PR0300527,REDWOOD MIDDLE SCHOOL,13925 FRUITVALE AV,Saratoga,95070,37.266065,-122.014044,06085507301,244207,5.4,moderate,3
PR0300528,THE OAK BISTRO - THOMAS CUISINE,14000 FRUITVALE AV,Saratoga,95070,37.2654833,-122.011019,06085507301,244207,5.4,moderate,3
PR0300529,GURU'S MARKET,148 GEORGE ST,San Jose,95110,37.346723,-121.901358,06085500200,115541,15.4,highly_underserved,10
PR0300530,EARL FROST SCHOOL,530 GETTYSBURG DR,San Jose,95123,37.247462,-121.836951,06085512045,181528,3.9,moderate,5
PR0300531,NODDIN ELEMENTARY SCHOOL,1755 GILDA WY,San Jose,95124,37.237787,-121.913786,06085506803,194219,6.7,moderate,5
PR0300533,CHALLENGER SCHOOL - BERRYESSA,711 E GISH RD,San Jose,95112,37.370567,-121.896027,06085504318,106535,14.6,underserved,7
PR0300539,NOBLE SCHOOL,3466 GROSSMONT AV,San Jose,95132,37.396239,-121.838835,06085504308,212941,8.0,underserved,6
PR0300542,THYME,496 HAMILTON AV,Palo Alto,94301,37.4474809,-122.1579914,06085511302,139167,18.2,underserved,8
PR0300546,SAFEWAY #1483,1530 HAMILTON AV,San Jose,95125,37.293601,-121.910666,06085502601,193125,3.4,moderate,5
PR0300548,BOSS LIQUOR,4175 HAMILTON AV,San Jose,95130,37.293939,-121.975706,06085506605,139265,8.0,underserved,8
PR0300550,JOHN MUIR ELEMENTARY SCHOOL,6560 HANOVER DR,San Jose,95129,37.30027,-122.019298,06085507906,250001,3.0,moderate,3
PR0300551,SIEMENS PALO ALTO CAFE,3130 HANSEN WY,Palo Alto,94304,37.4187449,-122.1453434,06085511705,250001,2.3,well_served,1
PR0300552,DELOS BAGBY SCHOOL,1840 HARRIS AV,San Jose,95124,37.278211,-121.923624,06085502901,135846,8.0,underserved,7
PR0300553,CHALLENGER SCHOOL - HARWOOD,4949 HARWOOD RD,San Jose,95124,37.247592,-121.913242,06085506803,194219,6.7,moderate,5
PR0300554,CHERRY CHASE SCHOOL,1138 HEATHERSTONE AV,Sunnyvale,94086,37.366942,-122.056314,06085508401,198816,1.7,moderate,3
PR0300555,ELK'S CLUB 1567,2765 HECKER PASS RD,Gilroy,95020,37.013802,-121.623151,06085512516,159137,5.7,underserved,6
PR0300557,HELLYER SCHOOL,725 HELLYER AV,San Jose,95111,37.284545,-121.82023,06085503210,120729,3.0,underserved,6
PR0300558,SARATOGA HIGH SCHOOL,20300 HERRIMAN AV,Saratoga,95070,37.267239,-122.030029,06085507500,214375,1.3,well_served,2
PR0300559,LOS GATOS HIGH SCHOOL,20 HIGH SCHOOL CT,Los Gatos,95032,37.221698,-121.976898,06085507004,175347,8.3,moderate,5
PR0300560,PENINSULA CREAMERY DAIRY FOUNTAIN,900 HIGH ST,Palo Alto,94302,37.440577,-122.158209,06085511301,238750,3.4,moderate,4
PR0300561,CAPITOL 6 DRIVE-IN & SWAP,3630 HILLCAP AV,San Jose,95136,37.280923,-121.844136,06085503127,191908,7.4,underserved,7
PR0300562,SAN JOSE JOB CORPS,3485 EAST HILLS DR,San Jose,95127,37.3662632,-121.8189652,06085504101,144167,8.2,underserved,6
PR0300563,METROPOLITAN EDUCATION DISTRICT,760 HILLSDALE AV BLDG 800,San Jose,95136,37.2793788,-121.8661769,06085503124,124229,15.6,underserved,8
PR0300566,FRESH MEAT FACTORY,622 HOLLENBECK AV,Sunnyvale,94087,37.369342,-122.040969,06085508404,213393,5.1,well_served,1
PR0300567,TANDOORI PIZZA,1663 HOLLENBECK AV,Sunnyvale,94087,37.3388858,-122.0426148,06085508303,219081,2.3,well_served,2
PR0300568,CVS/PHARMACY #9198,1675 HOLLENBECK AV,Sunnyvale,94087,37.337903,-122.041869,06085508303,219081,2.3,well_served,2
PR0300571,PIZZA GUYS,1998 HOMESTEAD RD STE 101,Santa Clara,95050,37.3434286,-121.9590375,06085506000,197202,3.0,moderate,3
PR0300572,SAFEWAY #700,2760 HOMESTEAD RD,Santa Clara,95051,37.3386212,-121.9759037,06085506102,189439,5.5,moderate,3
PR0300574,COOKING COOKING,2830 HOMESTEAD RD,Santa Clara,95051,37.337795,-121.97753,06085506101,190750,4.4,underserved,6
PR0300575,MCDONALD'S RESTAURANT #5672,3509 HOMESTEAD RD,Santa Clara,95051,37.338565,-121.993485,06085505403,182500,6.1,underserved,6
PR0300579,JX CUISINE,3581 HOMESTEAD RD,Santa Clara,95051,37.3382286,-121.9950238,06085505403,182500,6.1,underserved,6
PR0300582,OAKMONT PRODUCE MARKET,19944 HOMESTEAD RD,Cupertino,95014,37.337501,-122.022111,06085508101,250001,0.8,well_served,0
PR0300583,GOCHI JAPANESE FUSION TAPAS,19980 E HOMESTEAD RD,Cupertino,95014,37.3368137,-122.022788,06085508101,250001,0.8,well_served,0
PR0300586,7-ELEVEN FOOD STORE 2367-14320-F,21220 HOMESTEAD RD,Cupertino,950140202,37.337376,-122.045097,06085507805,201939,7.1,moderate,4
PR0300587,CUPERTINO MIDDLE SCHOOL,1650 BERNARDO AV,Sunnyvale,94087,37.339008,-122.059186,06085508301,250001,1.1,moderate,4
PR0300588,PEET'S COFFEE & TEA,22350 HOMESTEAD RD,Cupertino,95014,37.3374236,-122.0660479,06085507805,201939,7.1,moderate,4
PR0300592,GARDNER SCHOOL,502 ILLINOIS AV,San Jose,95125,37.321987,-121.896195,06085501800,142235,6.8,underserved,6
PR0300594,SHOP N GO,29 S JACKSON AV,San Jose,95116,37.3578058,-121.8435178,06085503710,43125,19.5,highly_underserved,9
PR0300595,EL GRULLO MEXICAN FOOD,41 S JACKSON AV,San Jose,95116,37.357468,-121.84321,06085503710,43125,19.5,highly_underserved,9
PR0300597,7 BAMBOO LOUNGE,162 JACKSON ST,San Jose,95112,37.3485505,-121.8952391,06085501101,105138,22.9,highly_underserved,9
PR0300599,GOMBEI JAPANESE RESTAURANT,193 JACKSON ST,San Jose,95112,37.3488138,-121.894741,06085501101,105138,22.9,highly_underserved,9
PR0300600,KUMAKO,211 JACKSON ST,San Jose,95112,37.349266,-121.894127,06085501101,105138,22.9,highly_underserved,9
PR0300602,KAITA RESTAURANT,215 JACKSON ST,San Jose,95112,37.3491707,-121.8939706,06085501101,105138,22.9,highly_underserved,9
PR0300603,SHUEI DO,217 JACKSON ST,San Jose,95112,37.349275,-121.894062,06085501101,105138,22.9,highly_underserved,9
PR0300604,B'ANNE BAKERY,224 JACKSON ST # 100,San Jose,95112,37.3490309,-121.893718,06085501101,105138,22.9,highly_underserved,9
PR0300606,NIJIYA MARKET,240 JACKSON ST,San Jose,95112,37.349228,-121.893507,06085501101,105138,22.9,highly_underserved,9
PR0300608,REED SCHOOL,1524 JACOB AV,San Jose,95124,37.264499,-121.89448,06085502907,213056,5.8,well_served,2
PR0300612,CARDENAS #203 - GROCERY,235 E JULIAN ST,San Jose,95112,37.3428774,-121.8889989,06085501000,58775,19.4,highly_underserved,9
PR0300613,EL OAXAQUENO,451 E JULIAN ST,San Jose,95112,37.34511,-121.884557,06085501000,58775,19.4,highly_underserved,9
PR0300614,NOAH'S MARKET,902 E JULIAN ST,San Jose,95112,37.349088,-121.875595,06085501200,108913,13.5,highly_underserved,10
PR0300616,SHAN MARKET,1250 E JULIAN ST,San Jose,95116,37.351749,-121.869915,06085501401,80216,7.9,underserved,8
PR0300617,HUBBARD SCHOOL,1745 JUNE AV,San Jose,95122,37.330417,-121.837686,06085503401,111576,13.9,underserved,8
PR0300618,BIRDIES AT STANFORD GOLF,198 JUNIPERO SERRA BL,Stanford,94305,37.4220461,-122.183223,06085511608,42824,35.8,highly_underserved,9
PR0300619,ST-CENTER FOR ADVANCED STUDY AT STA,75 ALTA RD,Stanford,94305,37.42018,-122.1799906,06085511705,250001,2.3,well_served,1
PR0300621,RENAISSANCE ACADEMY AT MATHSON,2050 KAMMERER AV,San Jose,95116,37.351221,-121.843346,06085503711,109167,16.5,underserved,8
PR0300622,BAR LA PALMA,262 KEYES ST,San Jose,95112,37.322269,-121.872211,06085503112,76156,21.7,highly_underserved,9
PR0300623,TAPS KEYES CLUB,396 KEYES ST,San Jose,95112,37.323326,-121.869951,06085503112,76156,21.7,highly_underserved,9
PR0300624,EL DORADO LIQUOR + MARKET,449 KEYES ST,San Jose,95112,37.324247,-121.868968,06085503112,76156,21.7,highly_underserved,9
PR0300625,THIEN THANH MARKET,1080 S 10TH ST,San Jose,95112,37.324525,-121.868498,06085503112,76156,21.7,highly_underserved,9
PR0300626,LE PAPILLON,410 SARATOGA AV,San Jose,95129,37.319814,-121.972239,06085506301,138411,9.6,underserved,7
PR0300627,"7-ELEVEN, STORE 2234-14246E",497 KIELY BL,San Jose,95117,37.320017,-121.969307,06085506301,138411,9.6,underserved,7
PR0300630,MEL'S MINI MART,1500 KIELY BL,Santa Clara,95051,37.351079,-121.977812,06085505401,162000,14.4,underserved,6
PR0300631,HACIENDA VALLEY SCIENCE MAGNET S,1290 KIMBERLY DR,San Jose,95118,37.269633,-121.883642,06085503003,207000,2.6,moderate,5
PR0300632,IMPERIO LIQUORS & TAQUERIA,203 S KING RD,San Jose,95116,37.349722,-121.852685,06085503602,98611,7.9,highly_underserved,9
PR0300634,KING'S BURGER,980 S KING RD,San Jose,95116,37.341232,-121.843906,06085503703,105455,6.7,underserved,7
PR0300636,KENTUCKY FRIED CHICKEN-2415,2415 S KING RD,San Jose,95122,37.3223813,-121.8259337,06085503402,79306,14.0,highly_underserved,10
PR0300637,7-ELEVEN #14253D,2577 S KING RD,San Jose,95122,37.319446,-121.823317,06085503304,101039,9.4,underserved,7
PR0300639,SCHALLENBERGER ELEMENTARY,1280 KOCH LN,San Jose,95125,37.280531,-121.888221,06085503002,139863,4.4,underserved,7
PR0300640,"SANDWICH MILL, THE",1381 KOOSER RD,San Jose,95118,37.2462042,-121.8891299,06085502910,110091,11.7,underserved,8
PR0300641,7-ELEVEN FOOD STORE #14255,1413 KOOSER RD,San Jose,95118,37.246281,-121.89062,06085502910,110091,11.7,underserved,8
PR0300642,UNION MIDDLE SCHOOL,2130 LOS GATOS-ALMADEN RD,San Jose,95124,37.243241,-121.9344,06085506804,221071,2.5,moderate,3
PR0300643,KATSUYAKI,1992 LAFAYETTE ST,Santa Clara,95050,37.360193,-121.9481103,06085505202,164928,19.1,underserved,8
PR0300644,DELI-CIOSO,2015 LAFAYETTE ST,Santa Clara,95050,37.3607472,-121.9479998,06085505202,164928,19.1,underserved,8
PR0300645,7-ELEVEN STORE 2234-14243C,3777 LAFAYETTE ST 316,Santa Clara,95054,37.387624,-121.953567,06085505007,164115,7.0,moderate,4
PR0300649,LAKEWOOD ELEMENTARY SCHOOL,750 LAKECHIME AV,Sunnyvale,94086,37.398223,-122.003452,06085504806,158750,3.5,underserved,7
PR0300650,DENNY'S RESTAURANT #9519,2401 LANAI AV,San Jose,95122,37.3210201,-121.8295926,06085503402,79306,14.0,highly_underserved,10
PR0300651,MCDONALD'S RESTAURANT #7534,1795 LANDESS AV,Milpitas,95035,37.4175338,-121.8713407,06085504416,190981,5.8,well_served,2
PR0300652,7-ELEVEN FOOD STORE #14324,1905 LATHAM ST,Mountain View,94040,37.394538,-122.096368,06085509403,177847,8.7,underserved,6
PR0300653,LATIMER ELEMENTARY SCHOOL,4250 LATIMER AV,San Jose,95130,37.292251,-121.979414,06085506601,133194,4.5,moderate,5
PR0300654,BILTMORE HOTEL- ZIN,2151 LAURELWOOD RD,Santa Clara,95054,37.383876,-121.961593,06085505007,164115,7.0,moderate,4
PR0300657,HOMI JAPANESE RAMEN,1133 LAWRENCE EX,Sunnyvale,94089,37.397172,-121.9970943999,06085504806,158750,3.5,underserved,7
PR0300658,NEW WING YUAN MARKET,1139 LAWRENCE EX,Sunnyvale,94089,37.397353,-121.996023,06085504806,158750,3.5,underserved,7
PR0300661,LEIGH HIGH SCHOOL,5210 LEIGH AV,Los Gatos,95124,37.24329,-121.922482,06085506803,194219,6.7,moderate,5
PR0300662,OSTER ELEMENTARY SCHOOL,1855 LENCAR WY,San Jose,95124,37.255621,-121.91939,06085502800,185962,8.6,moderate,5
PR0300663,WAGON WHEEL BBQ,861 LEONG DR,Mountain View,94043,37.406007,-122.065109,06085509108,219063,4.0,moderate,4
PR0300664,MI TIERRA - TAQUERIA,889 LEONG DR,Mountain View,94043,37.4060985,-122.0657216,06085509108,219063,4.0,moderate,4
PR0300666,LA FLOR DE JALISCO - TAQUERIA,144 LEWIS ST,Gilroy,95020,37.009919,-121.568397,06085512603,90139,14.8,underserved,8
PR0300668,STARBIRD CHICKEN,1241 W EL CAMINO REAL,Sunnyvale,94086,37.3746289,-122.0571039999,06085509107,143611,4.6,highly_underserved,9
PR0300669,PUERTO AZUL,1072 LINCOLN AV,San Jose,95125,37.310169,-121.90171,06085501800,142235,6.8,underserved,6
PR0300670,JAKE'S,1074 LINCOLN AV F&G,San Jose,95125,37.3098529,-121.901499,06085501800,142235,6.8,underserved,6
PR0300672,ROUND TABLE PIZZA #16,1175 LINCOLN AV,San Jose,95125,37.306987,-121.900534,06085502301,177692,2.5,well_served,2
PR0300673,SUSHI ARASHI,1181 LINCOLN AV,San Jose,95125,37.3070322,-121.9000828,06085502301,177692,2.5,well_served,2
PR0300674,HAJIS RESTAURANT,1185 LINCOLN AV,San Jose,95125,37.306957,-121.9000287,06085502301,177692,2.5,well_served,2
PR0300675,JOHN'S OF WILLOW GLEN,1238 LINCOLN AV,San Jose,95125,37.3060153,-121.8993067,06085502400,222311,6.8,moderate,3
PR0300676,LIUS TAIWAN RESTAURANT,1306 LINCOLN AV,San Jose,95125,37.3048534,-121.8983918,06085502400,222311,6.8,moderate,3
PR0300677,BERTUCELLI LA VILLA GOURMET & DE,1319 LINCOLN AV,San Jose,95125,37.304584,-121.898527,06085502301,177692,2.5,well_served,2
PR0300679,LINCOLN AVE LIQUORS,2049 LINCOLN AV,San Jose,95125,37.293479,-121.89026,06085502500,225694,4.6,moderate,3
PR0300680,RICORIA RESTAURANT,2281 LINCOLN AV,San Jose,95125,37.2889995,-121.8871218,06085503001,148750,3.2,moderate,4
PR0300681,FOOTHILL ELEMENTARY SCHOOL,13919 LYNDE LN,Saratoga,95070,37.265237,-122.033395,06085507600,250001,3.7,moderate,4
PR0300683,SWEET SHOP,994 LOS ALTOS AV,Los Altos,94022,37.4003033,-122.121744,06085510500,250001,5.2,moderate,5
PR0300684,LOS ARBOLES SCHOOL,455 LOS ARBOLES,San Jose,95111,37.285752,-121.830756,06085503217,81786,5.5,underserved,7
PR0300685,C W HAMAN SCHOOL,865 LOS PADRES BL,Santa Clara,95050,37.343503,-121.964613,06085505500,171855,3.9,moderate,4
PR0300686,7-ELEVEN #14236C,1555 LOS PADRES BL,Santa Clara,95050,37.351809,-121.964774,06085505500,171855,3.9,moderate,4
PR0300688,ROBERT F KENNEDY ELEM SCHOOL,1602 LUCRETIA AV,San Jose,95122,37.324649,-121.851782,06085503117,79205,10.2,highly_underserved,9
PR0300689,SAMUEL STIPE SCHOOL,5000 LYNG DR,San Jose,95111,37.27132,-121.806466,06085512056,123674,8.3,highly_underserved,10
PR0300690,GARRETT'S BAR & GRILL,605 MACARA AV,Sunnyvale,94085,37.396111,-122.042058,06085509102,229505,5.5,moderate,3
PR0300692,WINGSTOP RESTAURANT # 2428,812 S WINCHESTER BL # 110,San Jose,95128,37.312773,-121.949904,06085506401,172134,6.8,moderate,5
PR0300693,ITALIAN DELI,139 MAIN ST,Los Altos,94022,37.3797669,-122.1148712,06085510300,250001,3.2,well_served,1
PR0300695,CASA LUPE MEXICAN RESTAURANT,185 MAIN ST,Los Altos,94022,37.3789575,-122.1154834,06085510300,250001,3.2,well_served,1
PR0300698,7-ELEVEN FOOD STORE#14211B,280 E MAIN ST,Los Gatos,95032,37.220946,-121.975126,06085507004,175347,8.3,moderate,5
PR0300699,KENTUCKY FRIED CHICKEN-73,73 S MAIN ST,Milpitas,95035,37.429603,-121.906961,06085504510,159186,9.3,underserved,7
PR0300701,THE G,134 S MAIN ST 1,Milpitas,95035,37.428688,-121.9063358,06085504510,159186,9.3,underserved,7
PR0300702,KATHMANDU CUISINE,138 S MAIN ST,Milpitas,95035,37.4286431,-121.9063248,06085504510,159186,9.3,underserved,7
PR0300704,MILPITAS LIQUOR,190 S MAIN ST,Milpitas,95035,37.427833,-121.905944,06085504510,159186,9.3,underserved,7
PR0300706,TAQUERIA LAS VEGAS,1417 N MILPITAS BL,Milpitas,95035,37.450977,-121.910525,06085504506,164879,6.3,underserved,8
PR0300709,PAUL'S QUIK STOP #2,215 W MAIN,Morgan Hill,95037,37.128167,-121.65871,06085512314,152349,7.8,underserved,6
PR0300710,LOMBARDO'S DONUTS,219 W MAIN AV,Morgan Hill,95037,37.128571,-121.65898,06085512314,152349,7.8,underserved,6
PR0300711,REGION MARKET,225 W MAIN AV,Morgan Hill,95037,37.128089,-121.65885,06085512314,152349,7.8,underserved,6
PR0300713,SUNNYVALE JR HIGH SCHOOL,1080 MANGO AV,Sunnyvale,94086,37.360372,-122.053855,06085508401,198816,1.7,moderate,3
PR0300714,MARSHALL LANE ELEMENTARY SCHOOL,14114 MARILYN LN,Saratoga,95070,37.26375,-121.996432,06085507301,244207,5.4,moderate,3
PR0300716,Taco Bell - 35133,19 N MARKET ST,San Jose,95113,37.335734,-121.892611,06085500800,151357,10.9,underserved,8
PR0300718,7-ELEVEN FOOD STORE #14254,3497 MARTEN AV,San Jose,95127,37.350488,-121.797434,06085503509,151786,4.5,underserved,7
PR0300720,HOPPY'S FOOD MART,625 S MARY AV,Sunnyvale,94087,37.371467,-122.04877,06085508401,198816,1.7,moderate,3
PR0300724,NEW INDIA BAZAR,1338 S MARY AV,Sunnyvale,94087,37.350499,-122.050373,06085508303,219081,2.3,well_served,2
PR0300725,THE GURKHA KITCHEN,1342 S MARY AV,Sunnyvale,94087,37.3503182,-122.0504927,06085508303,219081,2.3,well_served,2
PR0300726,ZANOTTO'S SUNNYVALE MARKET - GROCERY,1356 S MARY AV,Sunnyvale,94087,37.3499617,-122.0504981,06085508303,219081,2.3,well_served,2
PR0300727,KEKE'S BREAKFAST CAFE,311 S MATHILDA AV,Sunnyvale,94086,37.374878,-122.035672,06085508601,195804,4.3,moderate,5
PR0300728,KAL'S BBQ,425 N MATHILDA AV,Sunnyvale,94085,37.3871404,-122.0314696,06085509102,229505,5.5,moderate,3
PR0300730,ST MARYS SCHOOL,30 LYNDON AV,Los Gatos,95030,37.223331,-121.98497,06085507004,175347,8.3,moderate,5
PR0300731,HILLBROOK SCHOOL,300 MARCHMONT DR,Los Gatos,95032,37.227577,-121.95483,06085506900,222166,3.2,moderate,3
PR0300732,FALAFEL FLARE,470 N MATHILDA AV,Sunnyvale,94086,37.3863566,-122.0312303,06085508800,143333,7.8,underserved,7
PR0300733,LUCKY #780-GROCERY,484 N MATHILDA AV,Sunnyvale,94086,37.38853,-122.029208,06085508800,143333,7.8,underserved,7
PR0300734,Taco Bell - 41078,485 N MATHILDA AV,Sunnyvale,94085,37.389472,-122.031337,06085509102,229505,5.5,moderate,3
PR0300735,JOY WOK,494 N MATHILDA AV,Sunnyvale,94085,37.3863712,-122.0312254,06085508800,143333,7.8,underserved,7
PR0300736,DISH N' DASH,736 N MATHILDA AV,Sunnyvale,94085,37.394312,-122.028615,06085509001,162981,7.6,underserved,6
PR0300738,KURATED KITCHENS,155 E MAUDE AV,Sunnyvale,94085,37.388073,-122.025279,06085509002,175625,6.2,underserved,6
PR0300739,KENTUCKY FRIED CHICKEN,340 W MAUDE AV,Sunnyvale,94086,37.388629,-122.029583,06085508800,143333,7.8,underserved,7
PR0300740,SAVE N GO MARKET,343 E MAUDE AV,Sunnyvale,94086,37.387383,-122.023111,06085509002,175625,6.2,underserved,6
PR0300742,PRESTIGE LIQUORS,490 N MATHILDA AV,Sunnyvale,94086,37.389038,-122.030384,06085508800,143333,7.8,underserved,7
PR0300743,LINCOLN SCHOOL,21710 MC CLELLAN RD,Cupertino,95014,37.315381,-122.054026,06085507702,250001,5.3,moderate,4
PR0300744,MONTA VISTA HIGH SCHOOL,21840 MC CLELLAN RD,Cupertino,95014,37.315419,-122.056443,06085507702,250001,5.3,moderate,4
PR0300745,DEEP CLIFF GOLF COURSE-SNACK BAR,10700 CLUB HOUSE LN,Cupertino,95014,37.312001,-122.066066,06085507705,250001,6.1,moderate,4
PR0300746,FOREST HILL SCHOOL,4450 MC COY AV,Campbell,95008,37.276266,-121.982233,06085506604,191843,2.7,well_served,2
PR0300747,TAK FOOD & LIQUOR,1091 MC CREERY AV ST.40,San Jose,95116,37.342198,-121.840912,06085503703,105455,6.7,underserved,7
PR0300748,THOMAS RYAN SCHOOL,1241 MC GINNES AV,San Jose,95127,37.368643,-121.821238,06085504101,144167,8.2,underserved,6
PR0300749,LUCKY 7 SUPERMARKET,1625 MCKEE RD,San Jose,95116,37.356513,-121.863304,06085503601,98021,13.9,underserved,8
PR0300750,WALGREENS #05454,1661 MCKEE RD,San Jose,951161236,37.35762,-121.861671,06085503601,98021,13.9,underserved,8
PR0300751,COUNTRYSIDE LIQUORS,1711 MCKEE RD # F,San Jose,95116,37.358543,-121.860294,06085503709,78089,18.4,highly_underserved,11
PR0300753,7-ELEVEN FOOD STORE #2367-14276E,1711 MCKEE RD # J,San Jose,95116,37.358543,-121.860294,06085503709,78089,18.4,highly_underserved,11
PR0300754,TACOS EL RANCHERITO #2,1729 MCKEE RD,San Jose,95116,37.358809,-121.860258,06085503709,78089,18.4,highly_underserved,11
PR0300755,MCKEE SEAFOOD SUPERMARKET,2331 MCKEE RD,San Jose,95116,37.36578,-121.849597,06085503708,103446,11.9,highly_underserved,9
PR0300756,MCKEE ROUND TABLE,2351 MCKEE RD,San Jose,95116,37.367731,-121.849235,06085503708,103446,11.9,highly_underserved,9
PR0300758,EL CERRITO TAQUERIA AND CENADURIA,3110 MCKEE RD,San Jose,95127,37.3751034,-121.8351476,06085503902,121083,9.5,underserved,7
PR0300759,ECONO LIQUORS,3112 MCKEE RD,San Jose,95127,37.375141,-121.83529,06085503902,121083,9.5,underserved,7
PR0300760,HAPPI HOUSE TERIYAKI,3015 MCKEE RD,San Jose,95127,37.3738898,-121.8375545,06085503804,141289,6.3,underserved,7
PR0300761,COUNTRY CLUB LIQUORS,3473 MCKEE RD,San Jose,95127,37.381348,-121.8285359,06085503802,114023,8.9,highly_underserved,10
PR0300762,LUCKY #233 - GROCERY,3457 MCKEE RD,San Jose,95127,37.381076,-121.829535,06085503802,114023,8.9,highly_underserved,10
PR0300764,LA PLAZA MARKET GROCERY,515 MCLAUGHLIN AV,San Jose,95116,37.340415,-121.861487,06085501502,111089,11.7,highly_underserved,11
PR0300765,JB LIQUOR,1096 MCLAUGHLIN AV,San Jose,95122,37.333169,-121.853851,06085503110,77353,14.2,highly_underserved,9
PR0300766,7-ELEVEN STORE # 2367 - 14256C,1173 MCLAUGHLIN AV,San Jose,95122,37.33193,-121.853062,06085503117,79205,10.2,highly_underserved,9
PR0300767,JANE LATHROP STANFORD MIDDLE SCHOOL,480 E MEADOW DR,Palo Alto,94306,37.422148,-122.118317,06085510803,250001,7.0,underserved,7
PR0300768,TOMMY ASIA,916 MERIDIAN AV,San Jose,95126,37.309818,-121.913264,06085502302,127175,1.7,moderate,4
PR0300771,ROOKIES SPORTS LODGE,1535 MERIDIAN AV STE 10,San Jose,95125,37.2964866,-121.913582,06085502202,113958,9.8,underserved,8
PR0300772,THREE FLAMES RESTAURANT,1547 MERIDIAN AV B,San Jose,95126,37.296337,-121.9135795,06085502202,113958,9.8,underserved,8
PR0300773,VUCKO'S LIQUOR & GROCERY,1585 MERIDIAN AV,San Jose,95125,37.2948043,-121.914643,06085502202,113958,9.8,underserved,8
PR0300775,EL DORADO TAQUERIA,1594 MERIDIAN AV,San Jose,95125,37.2952481,-121.913513,06085502301,177692,2.5,well_served,2
PR0300786,FRED'S PLACE,2534 OLD MIDDLEFIELD WY,Mountain View,94043,37.4149644,-122.1001151,06085509304,207381,1.8,well_served,1
PR0300789,WALGREENS #06869,2605 MIDDLEFIELD RD,Palo Alto,94303,37.434338,-122.130573,06085511000,250001,1.8,moderate,3
PR0300790,BASKIN ROBBINS ICE CREAM,2615 MIDDLEFIELD RD,Palo Alto,94306,37.4340785,-122.1303641,06085511000,250001,1.8,moderate,3
PR0300791,SAFEWAY #1682,2811 MIDDLEFIELD RD,Palo Alto,94303,37.4155627,-122.1020559,06085509304,207381,1.8,well_served,1
PR0300793,PIAZZA'S FINE FOODS GROCERY,3922 MIDDLEFIELD RD,Palo Alto,94303,37.4195787,-122.1097939,06085510802,250001,2.1,well_served,1
PR0300794,RICK'S AND PINTS OF JOY,3946 MIDDLEFIELD RD,Palo Alto,94303,37.418557,-122.109285,06085510802,250001,2.1,well_served,1
PR0300795,GREEN ELEPHANT GOURMET,3950 MIDDLEFIELD RD,Palo Alto,94303,37.419373,-122.1095736,06085510802,250001,2.1,well_served,1
PR0300796,CUPERTINO HIGH SCHOOL,10100 FINCH AV,Cupertino,95014,37.321722,-122.010389,06085508003,198500,9.1,moderate,5
PR0300797,DANIEL LAIRON COLLEGE PREPARATORY ACADEMY,3975 MIRA LOMA WY,San Jose,95111,37.282103,-121.829046,06085503218,53036,11.8,highly_underserved,10
PR0300808,ADRIAN C WILCOX HIGH SCHOOL,3250 MONROE ST,Santa Clara,95051,37.366771,-121.985709,06085505304,226731,5.7,moderate,3
PR0300810,THIRSTY BAR,1031 MONROE ST,Santa Clara,95050,37.348951,-121.947979,06085505600,140263,20.1,underserved,8
PR0300811,MONROE SCHOOL,1055 S MONROE ST,San Jose,95128,37.308695,-121.943618,06085506402,121413,8.6,highly_underserved,9
PR0300813,7-ELEVEN FOOD STORE #14212B,3580 MONROE ST,Santa Clara,95051,37.366681,-121.994948,06085505305,205550,6.3,moderate,5
PR0300815,MR HONG,16745 MONTEREY RD,Morgan Hill,95037,37.121954,-121.6480749,06085512313,107198,11.0,underserved,7
PR0300818,CAFE MOTIF,7397 MONTEREY RD,Gilroy,95020,37.006604,-121.568761,06085512603,90139,14.8,underserved,8
PR0300819,BARTENDERS UNION,7421 MONTEREY ST,Gilroy,95020,37.007056,-121.569215,06085512603,90139,14.8,underserved,8
PR0300821,GILROY BOWL,7554 MONTEREY ST,Gilroy,95020,37.009,-121.569176,06085512603,90139,14.8,underserved,8
PR0300822,EL CHARRITO MARKET,7638 MONTEREY ST,Gilroy,95020,37.010598,-121.570215,06085512604,83946,7.7,underserved,6
PR0300825,JACK IN THE BOX #478,7895 MONTEREY ST,Gilroy,95020,37.014356,-121.572564,06085512604,83946,7.7,underserved,6
PR0300826,"LONG HOUSE, THE",8195 MONTEREY ST,Gilroy,95020,37.0169039,-121.574795,06085512513,84934,5.2,underserved,6
PR0300828,LA COSTA TAQUERIA,16290 MONTEREY RD,Morgan Hill,95037,37.1166991,-121.6450885,06085512313,107198,11.0,underserved,7
PR0300829,SHIVA GLOBAL PARTNERSHIP COUNTRY STORE,16390 MONTEREY ST,Morgan Hill,95037,37.118024,-121.645668,06085512313,107198,11.0,underserved,7
PR0300830,PHO SAIGON CORNER,16760 MONTEREY RD,Morgan Hill,95037,37.1212883,-121.6476683,06085512313,107198,11.0,underserved,7
PR0300834,M & H TAVERN,17365 MONTEREY RD,Morgan Hill,95037,37.1284999,-121.6529556,06085512314,152349,7.8,underserved,6
PR0300835,SINALOA CAFE,17535 MONTEREY RD,Morgan Hill,95037,37.1296925,-121.6543069,06085512314,152349,7.8,underserved,6
PR0300836,TOLENTINO TAQUERIA,17735 MONTEREY RD,Morgan Hill,95037,37.1330278,-121.6568517,06085512314,152349,7.8,underserved,6
PR0300837,MADRONE MARKET,19120 MONTEREY RD,Morgan Hill,95037,37.1503299,-121.6709609,06085512311,139074,6.3,moderate,5
PR0300840,JUST BREAKFAST,2901 MONTEREY HY,San Jose,95111,37.290677,-121.848899,06085503126,178929,11.8,highly_underserved,9
PR0300842,JESS'S PLACE,3088 MONTEREY RD,San Jose,95111,37.2877787,-121.8452228,06085503219,60451,5.7,underserved,7
PR0300843,TACOS Y MARISCOS COSTA ALEGRE 2 INC.,3060 MONTEREY HY,San Jose,95111,37.2880945,-121.8452525999,06085503219,60451,5.7,underserved,7
PR0300844,DRINKS DEPOT,3100 MONTEREY RD,San Jose,95111,37.287428,-121.844699,06085503220,96705,6.6,highly_underserved,9
PR0300845,NEW SOUTHERN KITCHEN RESTAURANT,3848 MONTEREY RD,San Jose,95111,37.2818286,-121.8389644,06085503220,96705,6.6,highly_underserved,9
PR0300846,G6,3860 MONTEREY ST,San Jose,95111,37.2816713,-121.8388008,06085503220,96705,6.6,highly_underserved,9
PR0300849,LA COSTA,4152 MONTEREY RD,San Jose,95129,37.277962,-121.8350419,06085512057,176016,9.6,highly_underserved,10
PR0300850,MARINA GROCERY,4148 MONTEREY RD,San Jose,95111,37.278211,-121.835107,06085503218,53036,11.8,highly_underserved,10
PR0300853,EDENVALE LIQUORS,5272 MONTEREY RD B,San Jose,95111,37.2603574,-121.810008,06085512043,81984,7.1,highly_underserved,10
PR0300854,LOS GONZALEZ ICE CREAM,5278 MONTEREY RD # 30,San Jose,95111,37.259904,-121.809037,06085512043,81984,7.1,highly_underserved,10
PR0300856,ROCCA'S MARKET,13335 MONTEREY RD,San Martin,95046,37.085632,-121.610782,06085512401,197540,12.3,underserved,6
PR0300858,SAN MARTIN CAFE,13475 MONTEREY HY,San Martin,95046,37.0999311,-121.6229274,06085512310,100506,8.3,underserved,8
PR0300864,CURRY LIFE,4320 MOORPARK AV,San Jose,95129,37.3154773,-121.9783117,06085506204,200288,6.3,moderate,3
PR0300865,REDI ROOM,4340 MOORPARK AV,San Jose,95129,37.3155366,-121.9782139,06085506204,200288,6.3,moderate,3
PR0300866,FUGETSU SAN JOSE,4342 MOORPARK AV # 20,San Jose,95129,37.3156752,-121.9783165999,06085506204,200288,6.3,moderate,3
PR0300867,GAKU,5152 MOORPARK AV 40,San Jose,95129,37.309378,-121.993618,06085506202,189032,3.8,moderate,5
PR0300870,THE RAINBOW JUNCTION,47300 MINES RD,Livermore,94550,37.3923534,-121.4896895,06085513500,102750,15.3,underserved,6
PR0300871,THAI BASIL BAR & RESTAURANT,101 S MURPHY AV,Sunnyvale,94086,37.37762,-122.0298918,06085508602,180959,7.9,underserved,6
PR0300872,PAUL & HARVEY'S,130 S MURPHY AV,Sunnyvale,94086,37.377033,-122.029734,06085508602,180959,7.9,underserved,6
PR0300873,ZAREENS RESTAURANT - SUNNYVALE,135 S MURPHY AV,Sunnyvale,94086,37.377105,-122.030397,06085508602,180959,7.9,underserved,6
PR0300874,ROBERTO'S CANTINA,168 S MURPHY AV,Sunnyvale,94086,37.3765165,-122.0298043999,06085508602,180959,7.9,underserved,6
PR0300875,TAO TAO CAFE,175 S MURPHY AV,Sunnyvale,94086,37.3764309,-122.030623,06085508602,180959,7.9,underserved,6
PR0300876,DUMPLING DEPOT,562 S MURPHY AV,Sunnyvale,94086,37.369462,-122.032238,06085508602,180959,7.9,underserved,6
PR0300877,IDA PRICE INTERMEDIATE SCHOOL,2650 NEW JERSEY AV,San Jose,95124,37.273228,-121.926608,06085502901,135846,8.0,underserved,7
PR0300878,CHARLES FANMATRE SCHOOL,2800 NEW JERSEY AV,San Jose,95124,37.270955,-121.92571,06085502901,135846,8.0,underserved,7
PR0300880,ACHILLES,2521 NEWHALL ST,Santa Clara,95050,37.3376568,-121.9507616999,06085505902,107079,7.0,underserved,8
PR0300881,ONE STOP MARKET,2561 NEWHALL ST,Santa Clara,95050,37.337597,-121.95097,06085505902,107079,7.0,underserved,8
PR0300882,SJSU STUDENT UNION - MAIN KITCHEN,390 S 8TH ST,San Jose,95112,37.3354526,-121.8784589,06085500902,42955,51.0,highly_underserved,10
PR0300883,SJSU STUDENT UNION - ROOTED,390 S 8TH ST,San Jose,95112,37.3354526,-121.8784589,06085500902,42955,51.0,highly_underserved,10
PR0300884,SAINT PATRICK'S SCHOOL,51 N 9TH ST,San Jose,95112,37.340899,-121.882824,06085501000,58775,19.4,highly_underserved,9
PR0300885,LYNDALE SCHOOL,13901 NORDYKE DR,San Jose,95127,37.36003,-121.824452,06085504001,87364,11.2,highly_underserved,9
PR0300887,WASHINGTON ELEMENTARY SCHOOL,100 OAK ST,San Jose,95110,37.32169,-121.881774,06085501700,94736,13.1,underserved,8
PR0300890,LAS ISLITAS,1460 OAKLAND RD F,San Jose,95112,37.374431,-121.894073,06085504318,106535,14.6,underserved,7
PR0300891,EASY MART II,1460 OAKLAND RD A,San Jose,95112,37.374228,-121.894374,06085504318,106535,14.6,underserved,7
PR0300892,SAN JOSE MUNICIPAL GOLF COURSE,1560 OAKLAND RD,San Jose,95131,37.37665,-121.890206,06085504311,173106,4.1,moderate,4
PR0300894,7-ELEVEN FOOD STORE #2214-14321B,1951 OLD MIDDLEFIELD WY,Mountain View,94043,37.41422,-122.089977,06085509304,207381,1.8,well_served,1
PR0300896,7-ELEVEN STORE 2367-14219,615 OLD SAN FRANCISCO RD,Sunnyvale,94086,37.367343,-122.022469,06085508705,189571,1.7,underserved,6
PR0300899,SAKAMOTO SCHOOL,6280 SHADELANDS DR,San Jose,95123,37.231236,-121.838957,06085512045,181528,3.9,moderate,5
PR0300904,ROLLING HILLS SCHOOL,1585 MORE AV,Los Gatos,95032,37.264916,-121.985958,06085507205,244521,4.0,well_served,2
PR0300905,OLD GILROY SERVICE,2035 PACHECO PASS HY,Gilroy,95020,36.999692,-121.526485,06085512602,140556,9.0,moderate,4
PR0300906,CASA DE FRUTA - FRUITSTAND,9810 PACHECO PASS HY A,Hollister,95023,36.989744,-121.38204,06085513500,102750,15.3,underserved,6
PR0300907,CASA DE RESTAURANT,9820 PACHECO PASS HY,Hollister,95023,37.038471,-121.3003225,06085513500,102750,15.3,underserved,6
PR0300908,CASA DE WINE AND DELI,9840 PACHECO PASS HY,Hollister,95023,36.989781,-121.382016,06085513500,102750,15.3,underserved,6
PR0300910,TONY P'S BAR & GRILL,956 PARK AV,San Jose,95126,37.32596,-121.908155,06085501901,147727,9.2,underserved,8
PR0300911,PARK & HESTER MARKET,1451 PARK AV,San Jose,95126,37.329845,-121.919119,06085500500,166514,3.5,underserved,7
PR0300912,HERBERT HOOVER JR HIGH SCHOOL,1635 PARK AV,San Jose,95126,37.332339,-121.922355,06085500500,166514,3.5,underserved,7
PR0300914,VICTORIA LIQUORS,22 S PARK VICTORIA DR,Milpitas,95035,37.43528,-121.884047,06085504418,116310,6.3,underserved,7
PR0300915,7-ELEVEN #2366-14242D,57 S PARK VICTORIA DR,Milpitas,95035,37.434463,-121.884108,06085504418,116310,6.3,underserved,7
PR0300916,KING CHICKEN WING,77 S PARK VICTORIA DR,Milpitas,95035,37.4339155,-121.8837366,06085504418,116310,6.3,underserved,7
PR0300917,OMEGA RESTAURANT,90 S PARK VICTORIA DR,Milpitas,95035,37.4336204,-121.8835944,06085504418,116310,6.3,underserved,7
PR0300918,LOS JEFE'S TAQUERIA,1350 S PARK VICTORIA DR # 43,Milpitas,95035,37.41755,-121.873784,06085504416,190981,5.8,well_served,2
PR0300919,APNI MANDI FARMERS MARKET,1350 S PARK VICTORIA DR # 1,Milpitas,95035,37.41755,-121.873784,06085504416,190981,5.8,well_served,2
PR0300920,PARKTOWN PIZZA COMPANY,1350 S PARK VICTORIA DR 46,Milpitas,95035,37.41755,-121.873784,06085504416,190981,5.8,well_served,2
PR0300922,QUICKLY,1350 S PARK VICTORIA DR STE 30,Milpitas,95035,37.41755,-121.873784,06085504416,190981,5.8,well_served,2
PR0300923,7-ELEVEN STORE #2367-14218A,3111 PAYNE AV,San Jose,95117,37.301593,-121.950147,06085506302,182908,3.9,underserved,6
PR0300924,CASTLEMONT ELEMENTARY SCHOOL,3040 PAYNE AV,Campbell,95008,37.301432,-121.947518,06085506402,121413,8.6,highly_underserved,9
PR0300925,QUIK STOP MARKET #550040,3695 PEARL AV,San Jose,95123,37.272906,-121.869486,06085512005,198012,3.2,moderate,3
PR0300926,7-ELEVEN 14302C,4630 PEARL AV,San Jose,95125,37.2648578,-121.8651782,06085512024,136168,8.8,underserved,7
PR0300927,PAUL & EDDIES MONTA VISTA INN,21619 STEVENS CREEK BL,Cupertino,95014,37.323243,-122.051502,06085507805,201939,7.1,moderate,4
PR0300933,DAYBREAK DONUTS,3263 SIERRA RD,San Jose,95132,37.3991847,-121.848297,06085504314,210357,2.4,moderate,4
PR0300934,PIEDMONT HILLS HIGH SCHOOL,1377 PIEDMONT RD,San Jose,95132,37.403875,-121.849148,06085504314,210357,2.4,moderate,4
PR0300935,SPORTS PAGE,1431 PLYMOUTH ST,Mountain View,94040,37.416137,-122.078565,06085504601,74250,10.1,underserved,7
PR0300936,ROUND TABLE PIZZA,1472 POLLARD RD,Los Gatos,95032,37.2645317,-121.9845188,06085507205,244521,4.0,well_served,2
PR0300937,RINCONADA LIQUORS,1480 POLLARD RD,Los Gatos,95032,37.264478,-121.984056,06085507205,244521,4.0,well_served,2
PR0300938,SAFEWAY #742,1500 POLLARD RD,Los Gatos,95030,37.263865,-121.984623,06085507205,244521,4.0,well_served,2
PR0300940,POMEROY SCHOOL,1250 POMEROY AV,Santa Clara,95051,37.348323,-121.986874,06085505401,162000,14.4,underserved,6
PR0300941,CALA MARKET ONE,1570 POMEROY AV,Santa Clara,95051,37.3518458,-121.9870551,06085505401,162000,14.4,underserved,6
PR0300944,LABYRINTH BAR & KITCHEN,45 POST ST,San Jose,95113,37.33495,-121.8906622,06085500800,151357,10.9,underserved,8
PR0300947,THE MYNT,5210 PROSPECT RD,San Jose,95129,37.291488,-121.993345,06085507402,243720,3.0,well_served,2
PR0300950,SEE'S CANDIES #25,18470 PROSPECT RD,Saratoga,95070,37.291936,-121.99459,06085507402,243720,3.0,well_served,2
PR0300951,ROUND TABLE PIZZA #2,18482 PROSPECT RD,Saratoga,95070,37.2921868,-121.996271,06085507402,243720,3.0,well_served,2
PR0300952,LA CUEVA MEX GRILL,18486 PROSPECT RD,Saratoga,95070,37.2921868,-121.9962711,06085507402,243720,3.0,well_served,2
PR0300953,PROSPECT HIGH SCHOOL,18900 PROSPECT RD,Saratoga,95070,37.2929,-122.002502,06085507402,243720,3.0,well_served,2
PR0300954,SARATOGA COUNTRY CLUB INC,21990 PROSPECT RD,Saratoga,95070,37.285577,-122.050231,06085507702,250001,5.3,moderate,4
PR0300955,YUKI SUSHI,1827 PRUNERIDGE AV,Santa Clara,95050,37.3299742,-121.9508124,06085505902,107079,7.0,underserved,8
PR0300956,GRIZZLY SPIRITS,2364 PRUNERIDGE AV,Santa Clara,95050,37.3295764,-121.9627496,06085505901,182763,4.9,moderate,5
PR0300957,THE SPORTSMEN'S LOUNGE,2368 PRUNERIDGE AV,Santa Clara,95050,37.3296599,-121.962723,06085505901,182763,4.9,moderate,5
PR0300960,MEXICO LINDO RESTAURANT,11 RACE ST,San Jose,95126,37.33084,-121.912126,06085500600,140045,9.0,underserved,8
PR0300964,LYNBROOK HIGH SCHOOL,1280 JOHNSON AV,San Jose,95129,37.3011698,-122.0053339,06085507904,250001,1.5,moderate,3
PR0300965,JOAQUIN MILLER JR HIGH SCHOOL,6251 RAINBOW DR,San Jose,95129,37.301389,-122.01387,06085507903,223571,2.5,moderate,3
PR0300967,THE PRO,541 RAMONA ST,Palo Alto,94301,37.444799,-122.1613769,06085511302,139167,18.2,underserved,8
PR0300969,LA PLAZA MARKET,40 S RENGSTORFF AV,Mountain View,94040,37.4029219,-122.097836,06085509404,203864,3.7,moderate,4
PR0300970,LEROY ANDERSON ELEMENTARY SCHOOL,4000 RHODA DR,San Jose,95117,37.304505,-121.970754,06085506305,96150,12.7,highly_underserved,10
PR0300971,RAYMOND FISHER JR HIGH SCHOOL,19195 FISHER AV,Los Gatos,95032,37.234264,-121.973052,06085507100,159821,3.8,moderate,4
PR0300972,CRITTENDEN SCHOOL,1701 ROCK ST,Mountain View,94040,37.412022,-122.08435,06085509202,228462,10.4,underserved,6
PR0300973,ROBERT SANDERS SCHOOL,3411 ROCKY MOUNTAIN DR,San Jose,95127,37.351649,-121.80181,06085503509,151786,4.5,underserved,7
PR0300974,DWIGHT D EISENHOWER SCHOOL,277 RODONOVAN DR,Santa Clara,95051,37.329151,-121.989272,06085506103,231563,6.2,underserved,6
PR0300975,QUIK & SAVE,5245 ROEDER RD,San Jose,95111,37.261312,-121.810104,06085512042,111875,9.6,highly_underserved,11
PR0300976,PETERSON MIDDLE SCHOOL,1380 ROSALIA AV,Sunnyvale,94087,37.3489198,-122.0080432,06085508205,213981,2.9,well_served,1
PR0300983,HENRY'S WORLD FAMOUS HI-LIFE INC,301 W ST JOHN ST,San Jose,95110,37.335439,-121.898202,06085500800,151357,10.9,underserved,8
PR0300984,LHCF - GOOD SAMARITAN HOSPITAL THE,2425 SAMARITAN DR,San Jose,95124,37.2515326,-121.9468415,06085502704,183214,2.6,moderate,5
PR0300985,DE MARTINI ORCHARD,66 N SAN ANTONIO RD,Los Altos,94022,37.382568,-122.114326,06085510500,250001,5.2,moderate,5
PR0300990,DOHATSUTEN,799 SAN ANTONIO RD,Palo Alto,94303,37.420307,-122.102355,06085510801,250001,1.6,moderate,3
PR0300991,ESTRELLITA RESTAURANT,971 N SAN ANTONIO RD,Los Altos,94022,37.3985439,-122.1143346,06085510500,250001,5.2,moderate,5
PR0300992,CHEF CHU'S MANDARIN KITCHEN,1067 N SAN ANTONIO RD,Los Altos,94022,37.4006774,-122.1135653999,06085510400,250001,1.7,well_served,1
PR0300994,BILL'S MARKET-204,204 OAKLAND AV,San Jose,95116,37.351827,-121.847759,06085503711,109167,16.5,underserved,8
PR0300995,EL PIRRIN RESTAURANT,1900 E SAN ANTONIO ST,San Jose,95116,37.35166,-121.848085,06085503711,109167,16.5,underserved,8
PR0300997,JACK IN THE BOX #409,148 E SAN CARLOS ST,San Jose,95112,37.332527,-121.884044,06085500901,72112,35.8,highly_underserved,9
PR0300999,MUDAI ETHIOPIAN RESTAURANT,503 W SAN CARLOS ST,San Jose,95126,37.325914,-121.898819,06085500800,151357,10.9,underserved,8
PR0301001,JACK IN THE BOX #439,1558 W SAN CARLOS ST,San Jose,95126,37.322986,-121.91932,06085502002,117969,12.8,highly_underserved,11
PR0301007,LUTHER BURBANK SCHOOL DISTRICT,4 WABASH AV,San Jose,95128,37.323668,-121.926612,06085500500,166514,3.5,underserved,7
PR0301008,BEARS COCKTAILS,1872 W SAN CARLOS ST,San Jose,95128,37.3233312,-121.9275447,06085502001,94794,13.4,highly_underserved,9
PR0301009,EDNA RAY CHINESE RESTAURANT,1890 W SAN CARLOS ST,San Jose,95128,37.323151,-121.928184,06085502001,94794,13.4,highly_underserved,9
PR0301011,BANH MI OVEN (DOWNTOWN),221 E SAN FERNANDO ST,San Jose,95112,37.33682,-121.884697,06085500901,72112,35.8,highly_underserved,9
PR0301012,PEANUTS CAFE,275 E SAN FERNANDO ST,San Jose,95112,37.3372378,-121.8835439,06085500901,72112,35.8,highly_underserved,9
PR0301013,BLACKBERRY FARM,21979 SAN FERNANDO AV,Cupertino,95014,37.317975,-122.0604471,06085507701,234886,1.7,well_served,0
PR0301014,ONE STOP GROCERY COLD BEER,279 SAN JOSE AV,San Jose,95125,37.308768,-121.876035,06085503121,92607,13.3,highly_underserved,9
PR0301015,PANERA BREAD,15200 LOS GATOS BL STE 100,Los Gatos,95032,37.247343,-121.956719,06085506801,250001,3.6,well_served,2
PR0301016,JIFFY MART AND LIQUOR,15665 LOS GATOS BL,Los Gatos,95032,37.24058,-121.960815,06085506801,250001,3.6,well_served,2
PR0301017,LOU'S COFFEE SHOP,15691 LOS GATOS BL,Los Gatos,95032,37.2406573,-121.9610459,06085506801,250001,3.6,well_served,2
PR0301018,NOB HILL GENERAL STORE-LOS GATOS,15710 LOS GATOS BL,Los Gatos,95032,37.2296414,-121.9658983,06085507004,175347,8.3,moderate,5
PR0301019,CLASSIC BURGERS LOS GATOS,15737 LOS GATOS BL,Los Gatos,95032,37.240074,-121.961461,06085506801,250001,3.6,well_served,2
PR0301020,JACK IN THE BOX,15771 LOS GATOS BL,Los Gatos,95032,37.239543,-121.961689,06085506801,250001,3.6,well_served,2
PR0301021,HAPPY HOUND LOS GATOS,15899 LOS GATOS BL,Los Gatos,95032,37.2296875,-121.9660211,06085507004,175347,8.3,moderate,5
PR0301024,LOUISE VAN METER SCHOOL,16445 LOS GATOS BL,Los Gatos,95032,37.230493,-121.965646,06085507004,175347,8.3,moderate,5
PR0301026,PAUL'S IMPERIO LIQUORS #2,134 E SAN SALVADOR ST,San Jose,95112,37.33123,-121.883096,06085500901,72112,35.8,highly_underserved,9
PR0301030,GROCERY OUTLET OF DOWNTOWN SAN JOSE,272 E SANTA CLARA ST,San Jose,95113,37.338527,-121.8841,06085500901,72112,35.8,highly_underserved,9
PR0301033,COM GA NAM AN,348 E SANTA CLARA ST,San Jose,95113,37.3394513,-121.8832198,06085500901,72112,35.8,highly_underserved,9
PR0301034,THE LAST ROUND TAVERN,354 E SANTA CLARA ST,San Jose,95113,37.339502,-121.882733,06085500901,72112,35.8,highly_underserved,9
PR0301038,KENTUCKY FRIED CHICKEN-552,552 E SANTA CLARA ST,San Jose,95112,37.341449,-121.878627,06085501300,145260,13.5,highly_underserved,9
PR0301041,WIENERSCHNITZEL,902 E SANTA CLARA ST,San Jose,95116,37.344612,-121.87208,06085501402,94491,15.4,highly_underserved,9
PR0301043,CHAPARRAL SUPER MARKET,1001 E SANTA CLARA ST,San Jose,95116,37.345788,-121.870558,06085501401,80216,7.9,underserved,8
PR0301044,EL CAFETAL RESTAURANTE COLOMBIANO,1006 E SANTA CLARA ST,San Jose,95116,37.345549,-121.870137,06085501402,94491,15.4,highly_underserved,9
PR0301045,MAR Y SOL RESTAURANTE,1179 E SANTA CLARA ST,San Jose,95116,37.3472356,-121.867305,06085501401,80216,7.9,underserved,8
PR0301046,ROSE MARKET,1250 E SANTA CLARA ST,San Jose,95116,37.347796,-121.865954,06085501402,94491,15.4,highly_underserved,9
PR0301047,TRADE RITE MARKET - GROCERY STORE,1555 ALUM ROCK AV,San Jose,95116,37.3509521,-121.8601805,06085503601,98021,13.9,underserved,8
PR0301048,GRUPO DE CARNAVAL CULTURAL PORTUGUES DE SAO JOSE,1610 ALUM ROCK AV,San Jose,95116,37.3511984,-121.8585629,06085503602,98611,7.9,highly_underserved,9
PR0301049,ADEGA,1614 ALUM ROCK AV,San Jose,95116,37.35111,-121.858292,06085503602,98611,7.9,highly_underserved,9
PR0301050,V & V DELICIOUS CREPE,1661 ALUM ROCK AV,San Jose,95116,37.352673,-121.857318,06085503601,98021,13.9,underserved,8
PR0301051,SABY THAI RESTAURANT,62 W SANTA CLARA ST,San Jose,95113,37.335534,-121.891186,06085500800,151357,10.9,underserved,8
PR0301052,CARRY NATIONS,8 N SANTA CRUZ AV,Los Gatos,95030,37.222776,-121.983537,06085507004,175347,8.3,moderate,5
PR0301053,FLEUR DE COCOA,39 N SANTA CRUZ AV,Los Gatos,95030,37.223669,-121.9837,06085507004,175347,8.3,moderate,5
PR0301054,UME TEA,47 N SANTA CRUZ AV,Los Gatos,95030,37.2239227,-121.9832647,06085507004,175347,8.3,moderate,5
PR0301055,ROUND TABLE PIZZA,57 N SANTA CRUZ AV,Los Gatos,95030,37.2241397,-121.9831691,06085507004,175347,8.3,moderate,5
PR0301056,BLACK WATCH THE,141 1/2 N SANTA CRUZ AV,Los Gatos,95030,37.2226855,-121.9838375,06085507004,175347,8.3,moderate,5
PR0301057,FORBES MILL STEAKHOUSE,206 N SANTA CRUZ AV,Los Gatos,95030,37.226016,-121.981897,06085507004,175347,8.3,moderate,5
PR0301058,PEDRO'S RESTAURANT,316 N SANTA CRUZ AV,Los Gatos,95030,37.227695,-121.98141,06085507004,175347,8.3,moderate,5
PR0301059,LOS GATOS CAFE,340 N SANTA CRUZ AV,Los Gatos,95030,37.228311,-121.980982,06085507004,175347,8.3,moderate,5
PR0301062,7-ELEVEN FOOD STORE #14221D,657 N SANTA CRUZ AV,Los Gatos,95030,37.235752,-121.977732,06085507100,159821,3.8,moderate,4
PR0301064,WM CAFE,5055 SANTA TERESA BL,Gilroy,95020,36.9723867,-121.5695307,06085512510,117083,3.7,highly_underserved,9
PR0301066,ROUND TABLE PIZZA #46,6217 SANTA TERESA BL,San Jose,95119,37.236926,-121.8011457,06085512059,176250,5.2,moderate,4
PR0301068,CAMPBELL GROCERY OUTLET,100 N SAN TOMAS AQUINO RD,Campbell,95008,37.28739,-121.975553,06085506606,133700,8.7,underserved,7
PR0301072,WIENERSCHNITZEL,75 SARATOGA AV,Santa Clara,95050,37.324519,-121.968299,06085505901,182763,4.9,moderate,5
PR0301074,NAAN & CURRY,375 SARATOGA AV E,San Jose,95129,37.321454,-121.971944,06085506203,142791,7.2,underserved,6
PR0301075,APPLEBEE'S,555 SARATOGA AV,San Jose,95129,37.316755,-121.97615,06085506204,200288,6.3,moderate,3
PR0301078,BILL OF FARE,1069 SARATOGA AV,San Jose,95129,37.3073236,-121.9783476999,06085506202,189032,3.8,moderate,5
PR0301080,MAYFLOWER RESTAURANT,1080 SARATOGA AV STE 5,San Jose,95129,37.3058005,-121.9776785999,06085506305,96150,12.7,highly_underserved,10
PR0301081,JC'S BBQ,1080 SARATOGA AV # 8,San Jose,95129,37.305814,-121.977925,06085506305,96150,12.7,highly_underserved,10
PR0301082,SLAVIC SHOP,1080 SARATOGA AV 1,San Jose,95117,37.306118,-121.978144,06085506305,96150,12.7,highly_underserved,10
PR0301083,MAPLE LEAF DONUTS,1110 SARATOGA AV,San Jose,95129,37.3049121,-121.9783405,06085506305,96150,12.7,highly_underserved,10
PR0301084,FINAL SCORE,1126 SARATOGA AV,San Jose,95117,37.3046515,-121.9787797,06085506305,96150,12.7,highly_underserved,10
PR0301085,MAPLE LEAF LIQUORS,1146 SARATOGA AV,San Jose,95117,37.304037,-121.979121,06085506305,96150,12.7,highly_underserved,10
PR0301086,MOONWAKE COFFEE ROASTERS,1412 SARATOGA AV,San Jose,95129,37.2980553,-121.9835456,06085506601,133194,4.5,moderate,5
PR0301090,FREMONT HIGH SCHOOL,575 W FREMONT AV,Sunnyvale,94087,37.352851,-122.032605,06085508403,250001,2.2,well_served,2
PR0301093,BASKIN ROBBINS #360119,1137 S DE ANZA BL,San Jose,95129,37.3050206,-122.0323473,06085507808,250001,3.3,well_served,2
PR0301094,MCDONALD'S,1150 S DE ANZA BL,San Jose,95129,37.3038979,-122.031746,06085507905,141429,3.8,underserved,7
PR0301097,CASATA,1323 SUNNYVALE-SARATOGA RD,Sunnyvale,94087,37.3515141,-122.0326667,06085508306,250001,1.8,moderate,5
PR0301098,OH BABY SUSHI - CUPERTINO,1361 S DE ANZA BL,Cupertino,95014,37.2991281,-122.033046,06085507808,250001,3.3,well_served,2
PR0301099,KIKU SUSHI - KITCHEN,1655 S DE ANZA BL STE 7,Cupertino,95014,37.294641,-122.033127,06085507808,250001,3.3,well_served,2
PR0301100,COACH HOUSE WINE & LIQUORS,1655 S DE ANZA BL,Cupertino,95014,37.294941,-122.032518,06085507808,250001,3.3,well_served,2
PR0301101,DONUT WHEEL,10250 N DE ANZA BL,Cupertino,95014,37.3265086,-122.0321554,06085508101,250001,0.8,well_served,0
PR0301103,SPECIAL NOODLE SOUP,10275 S DE ANZA BL,Cupertino,95014,37.3187736,-122.0330674,06085507701,234886,1.7,well_served,0
PR0301104,WEI'S FISH,10520 S DE ANZA BL,Cupertino,95014,37.315481,-122.031665,06085508005,206389,5.4,moderate,5
PR0301107,6 TO LATE #5,2051 SCOTT ST,San Jose,95128,37.319978,-121.92812,06085502001,94794,13.4,highly_underserved,9
PR0301109,ARTEAGAS FOOD CENTER,2103 SCOTT BL,Santa Clara,95050,37.3605962,-121.9592016,06085505202,164928,19.1,underserved,8
PR0301111,VILLAGE PANTRY,184 2ND ST,Los Altos,94022,37.3787374,-122.1170593,06085510300,250001,3.2,well_served,1
PR0301113,THE ORIGINAL PANCAKE HOUSE,420 S SAN ANTONIO RD,Los Altos,94022,37.3751007,-122.1145616,06085510300,250001,3.2,well_served,1
PR0301115,IMPROV,62 S 2ND ST,San Jose,95113,37.335624,-121.888237,06085500901,72112,35.8,highly_underserved,9
PR0301119,MUWEKMA OHLONE MIDDLE SCHOOL,850 N 2ND ST,San Jose,95112,37.352895,-121.901425,06085500200,115541,15.4,highly_underserved,10
PR0301120,CHINA STATION,80 SENTER RD,San Jose,95111,37.277839,-121.833062,06085512057,176016,9.6,highly_underserved,10
PR0301121,DIRIDON LIQUOR,2875 SENTER RD STE B,San Jose,95111,37.298859,-121.839046,06085503222,122526,4.5,underserved,8
PR0301122,CAFE QUEEN BAKERY,2869 SENTER RD,San Jose,95111,37.2994572,-121.8395345,06085503222,122526,4.5,underserved,8
PR0301123,LEE'S SUPERMARKET GROCERY,2889 SENTER RD,San Jose,95111,37.2986851,-121.8386932,06085503222,122526,4.5,underserved,8
PR0301124,ANDREW HILL HIGH SCHOOL,3200 SENTER RD,San Jose,95111,37.291504,-121.831173,06085503210,120729,3.0,underserved,6
PR0301125,7-ELEVEN FOOD STORE #14292,4270 SENTER RD,San Jose,95111,37.280403,-121.823315,06085503208,163558,17.0,underserved,8
PR0301126,FOSTER'S FREEZE,78 SERRA WY,Milpitas,95035,37.427687,-121.907527,06085504510,159186,9.3,underserved,7
PR0301127,NEW KING EGGROLLS,442 W CALAVERAS BL,Milpitas,95035,37.426166,-121.912958,06085504508,186083,5.6,moderate,4
PR0301130,GURU'S FOOD & LIQUOR #5,501 N 17TH ST,San Jose,95112,37.352653,-121.88114,06085501102,144609,9.1,underserved,7
PR0301131,EL BOLERO,990 N 17TH ST,San Jose,95112,37.362079,-121.887392,06085500100,163061,6.0,underserved,6
PR0301132,ARGONAUT ELEMENTARY SCHOOL,13200 SHADOW MOUNTAIN WY,Saratoga,95070,37.276412,-122.026002,06085507500,214375,1.3,well_served,2
PR0301134,THE BUCK TAVERN,3273 SIERRA RD,San Jose,95132,37.399261,-121.847906,06085504307,154801,4.3,underserved,6
PR0301135,LA CHINGADA TAQUERIA,3281 SIERRA RD,San Jose,95132,37.3994854,-121.8478481999,06085504314,210357,2.4,moderate,4
PR0301136,SILVER CREEK HIGH SCHOOL,3434 SILVER CREEK RD,San Jose,95122,37.30413,-121.808144,06085503336,190000,7.0,underserved,7
PR0301137,7-ELEVEN 14263F,188 N 6TH ST,San Jose,95112,37.341425,-121.887092,06085501000,58775,19.4,highly_underserved,9
PR0301138,7-ELEVEN 2367-14288B,404 S 6TH ST,San Jose,95112,37.332401,-121.880392,06085500902,42955,51.0,highly_underserved,10
PR0301139,COLLEGE MARKET,502 S 6TH ST,San Jose,95112,37.330996,-121.879315,06085501602,58466,26.0,highly_underserved,10
PR0301140,OKAYAMA RESTAURANT,565 N 6TH ST A,San Jose,95112,37.348406,-121.89289,06085501101,105138,22.9,highly_underserved,9
PR0301141,MINATO SUSHI,617 N 6TH ST,San Jose,95112,37.349708,-121.893735,06085501101,105138,22.9,highly_underserved,9
PR0301143,THE COMMISSARY,5475 SNELL AV,San Jose,95123,37.2476886,-121.829868,06085512029,180725,1.7,well_served,2
PR0301144,HOMETOWN TASTE,6033 SNELL AV,San Jose,95123,37.2376999,-121.831784,06085512045,181528,3.9,moderate,5
PR0301145,SAM'S DONUTS,6047 SNELL AV,San Jose,95123,37.238204,-121.8307068,06085512045,181528,3.9,moderate,5
PR0301147,MIKE'S LIQUORS,6027 SNELL AV,San Jose,95123,37.238159,-121.8316311,06085512045,181528,3.9,moderate,5
PR0301149,BACHRODT ELEMENTARY SCHOOL,102 SONORA ST,San Jose,95110,37.36348,-121.912424,06085505100,115395,14.5,highly_underserved,9
PR0301151,SEE'S CANDIES #45,680 STANFORD SHOPPING CENTER D131,Palo Alto,94305,37.445199,-122.171761,06085511609,148365,6.0,underserved,6
PR0301152,ST-MARKET SQUARE,300 PASTEUR DR,Palo Alto,94305,37.4338675,-122.1761355,06085511609,148365,6.0,underserved,6
PR0301153,CAFE ROUGE AT RUSSO,559 NATHAN ABBOTT WY,Stanford,94305,37.423508,-122.167317,06085513000,53696,21.9,highly_underserved,9
PR0301159,ST-STERN HALL DINING HALL,618 W ESCONDIDO RD,Stanford,94305,37.4252667,-122.1652178,06085513000,53696,21.9,highly_underserved,9
PR0301160,ZAP,710 BOWDOIN ST,Stanford,94305,37.4214444,-122.1618647,06085511502,250001,0.8,well_served,1
PR0301161,ST-FLORENCE MOORE HALL,436 MAYFIELD AV,Stanford,94305,37.4226108,-122.1711448,06085511608,42824,35.8,highly_underserved,9
PR0301162,PI BETA PHI,517 COWELL LN,Stanford,94305,37.421806,-122.162618,06085511502,250001,0.8,well_served,1
PR0301163,KAPPA ALPHA THETA,585 COWELL LN,Stanford,94305,37.42094,-122.1626446,06085511502,250001,0.8,well_served,1
PR0301164,ST-DINING @ BRANNER HALL CAFE,655 ESCONDIDO RD,Stanford,94305,37.425057,-122.162746,06085513000,53696,21.9,highly_underserved,9
PR0301165,ST-WILBUR HALL,658 ESCONDIDO RD,Stanford,94306,37.4246468,-122.1624019,06085513000,53696,21.9,highly_underserved,9
PR0301166,STANFORD FACULTY CLUB,439 LAGUNITA AV,Stanford,94305,37.423596,-122.1714293,06085513000,53696,21.9,highly_underserved,9
PR0301168,MUWEKMA-TAH-RUK,543 LAUSEN MALL,Stanford,94305,37.4232731,-122.1692358,06085513000,53696,21.9,highly_underserved,9
PR0301169,STOREY,544 LASUEN MALL,Stanford,94305,37.423246,-122.16975,06085513000,53696,21.9,highly_underserved,9
PR0301170,SIGMA CHI,550 LASUEN ST,Stanford,94305,37.4306306,-122.1674339,06085513000,53696,21.9,highly_underserved,9
PR0301171,SIGMA NU,557 MAYFIELD AV,Stanford,94305,37.4223193,-122.1683925,06085513000,53696,21.9,highly_underserved,9
PR0301172,SLAVIANSKI DOM,650 MAYFIELD AV,Stanford,94305,37.4185512,-122.1653139,06085511502,250001,0.8,well_served,1
PR0301173,JERRY,658 LOMITA CT,Stanford,94305,37.4212089,-122.1735463,06085511608,42824,35.8,highly_underserved,9
PR0301174,KAPPA ALPHA,664 LOMITA CT,Stanford,94305,37.42044,-122.173875,06085511608,42824,35.8,highly_underserved,9
PR0301175,KAPPA KAPPA GAMMA,675 LOMITA DR,Stanford,94305,37.4209425,-122.1700992,06085511608,42824,35.8,highly_underserved,9
PR0301176,LOMITA,680 LOMITA DR,Stanford,94305,37.4205426,-122.171473,06085511608,42824,35.8,highly_underserved,9
PR0301178,SIGMA PHI EPSILON,1047 CAMPUS DR,Stanford,94305,37.4199108,-122.1708958,06085511608,42824,35.8,highly_underserved,9
PR0301179,KAPPA SIGMA,1035 CAMPUS DR,Stanford,94305,37.4202195,-122.170199,06085511608,42824,35.8,highly_underserved,9
PR0301180,ALPHA PHI,1018 CAMPUS DR,Stanford,94305,37.4204976,-122.1690132,06085511502,250001,0.8,well_served,1
PR0301181,PHI KAPPA PSI,592 MAYFIELD AV,Stanford,94305,37.4199569,-122.1672875,06085511502,250001,0.8,well_served,1
PR0301182,FRENCH HOUSE,610 MAYFIELD AV,Stanford,94305,37.419615,-122.1669327,06085511502,250001,0.8,well_served,1
PR0301183,MARS,553 MAYFIELD AV,Stanford,94305,37.4226924,-122.1686033,06085513000,53696,21.9,highly_underserved,9
PR0301184,ST-LAKESIDE LAGUNITA,326 SANTA TERESA,Stanford,94305,37.425798,-122.175994,06085511608,42824,35.8,highly_underserved,9
PR0301185,ST-TRESIDDER MARKETPLACE,459 LAGUNITA DR,Stanford,94305,37.422866,-122.170149,06085513000,53696,21.9,highly_underserved,9
PR0301188,MARINA MARKET,1269 STATE ST,Alviso,95002,37.427823,-121.973361,06085504602,121953,7.5,moderate,5
PR0301189,HILTON GARDEN INN HOTEL,767 N MATHILDA AV,Sunnyvale,94086,37.3946799,-122.0291108,06085509102,229505,5.5,moderate,3
PR0301190,FALAFEL'S,2301 STEVENS CREEK BL,San Jose,95128,37.323631,-121.934997,06085502001,94794,13.4,highly_underserved,9
PR0301195,A SLICE OF NEW YORK,3443 STEVENS CREEK BL,San Jose,95117,37.323374,-121.9589554,06085505901,182763,4.9,moderate,5
PR0301198,WOODHAM'S SPORTS LOUNGE,4475 STEVENS CREEK BL,Santa Clara,95051,37.3231454,-121.9811004,06085506103,231563,6.2,underserved,6
PR0301202,MEENAKSHI BHAVAN,4996 STEVENS CREEK BL,San Jose,95129,37.3230492,-121.9903558,06085506103,231563,6.2,underserved,6
PR0301204,EUREST DINING @ AGILENT,5301 STEVENS CREEK BL,Santa Clara,95051,37.323195,-121.997681,06085508102,216094,0.5,moderate,3
PR0301207,AZUMA,19645 STEVENS CREEK BL,Cupertino,95014,37.3230453,-122.0145744,06085508101,250001,0.8,well_served,0
PR0301210,SWEET MAPLE,20010 STEVENS CREEK BL,Cupertino,95014,37.3225817,-122.0235354999,06085508005,206389,5.4,moderate,5
PR0301216,PACIFIC DINING - DE ANZA COLLEGE,21250 STEVENS CREEK BL,Cupertino,95014,37.319171,-122.045112,06085507701,234886,1.7,well_served,0
PR0301218,BAILEY PLAZA LIQUORS,570 N SHORELINE BL,Mountain View,94043,37.4028981,-122.0794551,06085509202,228462,10.4,underserved,6
PR0301219,ROUND TABLE PIZZA,570 N SHORELINE BL # I,Mountain View,94043,37.402947,-122.079037,06085509202,228462,10.4,underserved,6
PR0301220,SAFEWAY #705,570 N SHORELINE BL,Mountain View,94043,37.402947,-122.079037,06085509202,228462,10.4,underserved,6
PR0301226,PAUL'S QUICK STOP,709 STOCKTON AV,San Jose,95126,37.340772,-121.913794,06085500400,152973,2.4,underserved,7
PR0301227,BILLA DISCOUNT LIQUOR,1068 STORY RD,San Jose,95122,37.332115,-121.854361,06085503117,79205,10.2,highly_underserved,9
PR0301229,LION MARKET- GROCERY,1070 STORY RD,San Jose,95122,37.332147,-121.854353,06085503117,79205,10.2,highly_underserved,9
PR0301230,TROPICANA FOODS,1630 STORY RD,San Jose,95122,37.3398104,-121.8430682,06085503401,111576,13.9,underserved,8
PR0301234,JACK IN THE BOX #415,1841 STORY RD,San Jose,95116,37.341534,-121.841371,06085503703,105455,6.7,underserved,7
PR0301236,7 ELEVEN 14257C,2032 STORY RD,San Jose,95122,37.3437099,-121.8366824,06085503507,168716,4.2,moderate,3
PR0301237,EL BOMBERO 408 INC,2108 STORY RD # A,San Jose,95122,37.344181,-121.836039,06085503507,168716,4.2,moderate,3
PR0301238,BINH MINH RESTAURANT,2155 STORY RD,San Jose,95122,37.345764,-121.835042,06085503703,105455,6.7,underserved,7
PR0301239,STORY LIQUOR,2241 STORY RD,San Jose,95122,37.346315,-121.833901,06085503703,105455,6.7,underserved,7
PR0301240,KENTUCKY FRIED CHICKEN @ 2342,2342 STORY RD,San Jose,95112,37.347128,-121.831814,06085503506,101146,5.8,underserved,8
PR0301241,WIENERSCHNITZEL #156,2844 STORY RD,San Jose,95127,37.352936,-121.822827,06085503510,135926,4.9,moderate,5
PR0301242,TACOS GENESIS,2868 STORY RD,San Jose,95127,37.353141,-121.822522,06085503510,135926,4.9,moderate,5
PR0301243,MOUNT PLEASANT BOTTLE SHOP,3078 STORY RD,San Jose,95127,37.355823,-121.819413,06085503510,135926,4.9,moderate,5
PR0301244,H SALT FISH & CHIPS RESTAURANT,3090 STORY RD,San Jose,95127,37.3561158,-121.8191241,06085503510,135926,4.9,moderate,5
PR0301245,MORELAND MIDDLE SCHOOL,4600 STUDENT LN,San Jose,95130,37.289888,-121.983846,06085506601,133194,4.5,moderate,5
PR0301246,7-ELEVEN #2367-14247D,262 W SUNNYOAKS AV,Campbell,95008,37.27208,-121.954881,06085506702,122050,5.6,underserved,7
PR0301247,BISHOP SCHOOL,450 N SUNNYVALE AV,Sunnyvale,94086,37.386767,-122.025246,06085508800,143333,7.8,underserved,7
PR0301249,SYLVANDALE JUNIOR HIGH SCHOOL,653 SYLVANDALE AV,San Jose,95111,37.287918,-121.824889,06085503210,120729,3.0,underserved,6
PR0301253,SANTO MARKET,245 E TAYLOR ST,San Jose,95112,37.351641,-121.895066,06085500100,163061,6.0,underserved,6
PR0301256,RENEGADES,501 W TAYLOR ST,San Jose,95110,37.3423708,-121.911056,06085500300,107431,9.6,underserved,7
PR0301257,TONY'S POOL HALL,585 E TAYLOR ST,San Jose,95112,37.3549028,-121.8880136,06085500100,163061,6.0,underserved,6
PR0301258,LUNCH WITH TONY,5202 N 1ST ST,San Jose,95002,37.426048,-121.97359,06085504602,121953,7.5,moderate,5
PR0301260,S & S MARKET,502 S 10TH ST,San Jose,95112,37.332984,-121.875105,06085501601,120770,20.6,highly_underserved,11
PR0301261,GREWAL FOODS & LIQUORS,601 S 10TH ST,San Jose,95112,37.331382,-121.874296,06085501602,58466,26.0,highly_underserved,10
PR0301262,LA BODEGA BAR,1030 N 10TH ST,San Jose,95112,37.3607533,-121.895971,06085500100,163061,6.0,underserved,6
PR0301263,YOSHI SUSHI,250 3RD ST,Los Altos,94022,37.377789,-122.1151417,06085510300,250001,3.2,well_served,1
PR0301264,TAK MARKET,698 N 3RD ST,San Jose,95112,37.350054,-121.898004,06085500200,115541,15.4,highly_underserved,10
PR0301268,CHECO'S RESTAURANT,674 N 13TH ST A,San Jose,95112,37.3544177,-121.8872857,06085501102,144609,9.1,underserved,7
PR0301270,MARIA'S-CLUB PAPILLON,728 N 13TH ST,San Jose,95112,37.35622,-121.888241,06085500100,163061,6.0,underserved,6
PR0301273,TAQUERIA LORENA,854 N 13TH ST,San Jose,95112,37.3591916,-121.8908135,06085500100,163061,6.0,underserved,6
PR0301275,MARISCOS COSTA ALEGRE,855 N 13TH ST,San Jose,95112,37.358265,-121.89058,06085500100,163061,6.0,underserved,6
PR0301276,LA CORONA BAR,858 N 13TH ST,San Jose,95112,37.358868,-121.890184,06085500100,163061,6.0,underserved,6
PR0301278,GIOVANNI'S PIZZA,862 N 13TH ST,San Jose,95112,37.3592167,-121.890813,06085500100,163061,6.0,underserved,6
PR0301281,CHEZ SOVAN,923 N 13TH ST,San Jose,95112,37.3614133,-121.8926007,06085500100,163061,6.0,underserved,6
PR0301285,MAMAHUHU,855 EL CAMINO REAL # 75,Palo Alto,94301,37.438491,-122.158922,06085511609,148365,6.0,underserved,6
PR0301287,ROOST AND ROAST,855 EL CAMINO REAL # 157,Palo Alto,94301,37.438746,-122.161386,06085511609,148365,6.0,underserved,6
PR0301291,BRIARWOOD SCHOOL,1930 TOWNSEND AV,Santa Clara,95051,37.357704,-121.986768,06085505305,205550,6.3,moderate,5
PR0301292,NORTHWOOD SCHOOL,2760 E TRIMBLE RD,San Jose,951321055,37.40929,-121.881409,06085504410,153523,10.9,highly_underserved,9
PR0301294,FRANKLIN SCHOOL,420 TULLY RD,San Jose,95111,37.305152,-121.851386,06085503221,49323,23.2,highly_underserved,9
PR0301295,STOP N BUY,1601 TULLY RD,San Jose,95122,37.320536,-121.828845,06085503402,79306,14.0,highly_underserved,10
PR0301296,JACK IN THE BOX #440,1632 TULLY RD,San Jose,95122,37.320493,-121.827832,06085503304,101039,9.4,underserved,7
PR0301297,ANH CHI EM,1709 TULLY RD # A,San Jose,95122,37.32323,-121.825219,06085503306,119091,10.4,highly_underserved,10
PR0301298,TULLY MARKET,1709 TULLY RD D,San Jose,95122,37.322671,-121.825726,06085503306,119091,10.4,highly_underserved,10
PR0301300,SAN JOSE HIGH SCHOOL,275 N 24TH ST,San Jose,95116,37.350342,-121.871232,06085501401,80216,7.9,underserved,8
PR0301302,GURU'S MARKET #8,202 S 22ND ST,San Jose,95116,37.342891,-121.866265,06085501502,111089,11.7,highly_underserved,11
PR0301304,LUCKY CHARM RESTAURANT,2622 UNION AV,San Jose,95124,37.2741493,-121.9335999,06085502901,135846,8.0,underserved,7
PR0301306,BEST HAWAIIAN BBQ,2638 UNION AV,San Jose,95124,37.2738225,-121.9331116999,06085502901,135846,8.0,underserved,7
PR0301307,ISFAHAN KABOB GOURMET,3014 UNION AV # C,San Jose,95124,37.2668251,-121.9311783,06085502901,135846,8.0,underserved,7
PR0301309,TIP TOP CRAFT BEER WINE LIQUORS,3649 UNION AV,San Jose,95124,37.261023,-121.931568,06085502704,183214,2.6,moderate,5
PR0301312,DOLLAR TREE,14406 UNION AV,San Jose,95124,37.258577,-121.931188,06085502800,185962,8.6,moderate,5
PR0301315,WINE CELLAR,50 UNIVERSITY AV,Los Gatos,95030,37.223102,-121.981351,06085507004,175347,8.3,moderate,5
PR0301317,PHO HA NOI PALO ALTO,185 UNIVERSITY AV,Palo Alto,94301,37.444719,-122.163123,06085511302,139167,18.2,underserved,8
PR0301321,575 MIISHIEN,326 UNIVERSITY AV,Palo Alto,94301,37.4463389,-122.1611795,06085511302,139167,18.2,underserved,8
PR0301323,SOMI SOMI,440 UNIVERSITY AV,Palo Alto,94301,37.4475585,-122.1597988,06085511302,139167,18.2,underserved,8
PR0301324,LOS GATOS MEATS & SMOKEHOUSE,575 UNIVERSITY AV,Los Gatos,95030,37.232741,-121.977562,06085507100,159821,3.8,moderate,4
PR0301326,TROPICANA LIQUORS,2770 STORY RD,San Jose,95127,37.351976,-121.825099,06085503510,135926,4.9,moderate,5
PR0301327,MILDRED GOSS SCHOOL,2475 VAN WINKLE LN,San Jose,95116,37.350029,-121.831348,06085504002,92091,11.3,underserved,8
PR0301328,GUADALUPE ELEMENTARY SCHOOL,6044 VERA CRUZ DR,San Jose,95120,37.227864,-121.896717,06085511913,250001,0.6,well_served,2
PR0301329,LA FIESTA RESTAURANT,240 VILLA ST,Mountain View,94041,37.391583,-122.072927,06085509600,188676,14.7,underserved,6
PR0301330,SEASONS NOODLES & DUMPLINGS GARDEN,702 VILLA ST,Mountain View,94041,37.3933991,-122.0778695,06085509600,188676,14.7,underserved,6
PR0301331,RITUAL AT MANRESA,320 VILLAGE LN,Los Gatos,95030,37.227405,-121.980886,06085507004,175347,8.3,moderate,5
PR0301332,VRAICH LIQUORS,901 VINE ST,San Jose,95110,37.320018,-121.884589,06085501700,94736,13.1,underserved,8
PR0301334,FREMONT HILLS COUNTRY CLUB SNACK,12889 VISCAINO PL,Los Altos Hills,94022,37.376346,-122.145053,06085511701,250001,3.5,moderate,4
PR0301336,SCHOOL CATERERS @ CANYON HEIGHTS AC,775 WALDO RD,Campbell,95008,37.276381,-121.963224,06085506702,122050,5.6,underserved,7
PR0301337,SUGGI OOTA,20 WASHINGTON ST,Santa Clara,95050,37.3385084,-121.9382802,06085505700,125740,18.4,underserved,8
PR0301338,RAINBOW DONUTS,24 WASHINGTON ST,Santa Clara,95050,37.3385084,-121.9382802,06085505700,125740,18.4,underserved,8
PR0301339,CREPES BISTRO,57 WASHINGTON ST,Santa Clara,95050,37.339102,-121.9385502,06085505700,125740,18.4,underserved,8
PR0301341,KING WAH CHINESE RESTAURANT,219 E WASHINGTON AV,Sunnyvale,94086,37.375855,-122.028623,06085508602,180959,7.9,underserved,6
PR0301342,7 ELEVEN STORE 14216K,281 WASHINGTON ST,Santa Clara,95050,37.3432231,-121.9404448999,06085505700,125740,18.4,underserved,8
PR0301345,CAPTAIN JASON M DAHL  SCHOOL,3200 WATER ST,San Jose,95111,37.288431,-121.840413,06085503220,96705,6.6,highly_underserved,9
PR0301346,LA RINCONADA COUNTRY CLUB,14595 CLEARVIEW DR,Los Gatos,95032,37.253238,-121.976904,06085507205,244521,4.0,well_served,2
PR0301348,WESTMONT HIGH SCHOOL,4805 WESTMONT AV,Campbell,95008,37.270364,-121.98529,06085506701,228173,4.3,moderate,5
PR0301352,M S GASLIGHT,233 S WHITE RD F,San Jose,95127,37.362383,-121.825539,06085504001,87364,11.2,highly_underserved,9
PR0301353,Y MARKET & LIQUOR,233 S WHITE RD A,San Jose,95127,37.362861,-121.825502,06085504001,87364,11.2,highly_underserved,9
PR0301354,BASKIN ROBBINS ICE CREAM,1105 S WHITE RD,San Jose,95127,37.3560231,-121.8190717,06085503510,135926,4.9,moderate,5
PR0301355,7-ELEVEN FOOD STORE #14267A,1434 S WHITE RD,San Jose,95127,37.350302,-121.8136,06085503508,125469,10.3,highly_underserved,9
