{"deserts": [{"geoid": "6085504808", "centroid_lat": 37.40102190377974, "centroid_lon": -122.02653994349022, "population": 2111, "biz_per_1k": 2.37, "nearest_food_businesses": [{"name": "COMFORT INN SUITES", "city": "Sunnyvale", "distance_miles": 0.06}, {"name": "SUNDOWNER INN-FOOD SERVICE", "city": "Sunnyvale", "distance_miles": 0.08}, {"name": "MANGAL GRILL", "city": "Sunnyvale", "distance_miles": 0.09}], "closest_miles": 0.06}, {"geoid": "6085512019", "centroid_lat": 37.27074590652535, "centroid_lon": -121.84580334164728, "population": 4380, "biz_per_1k": 1.83, "nearest_food_businesses": [{"name": "PARKVIEW SCHOOL", "city": "San Jose", "distance_miles": 0.06}, {"name": "CVS\\PHARMACY #9395", "city": "San Jose", "distance_miles": 0.28}, {"name": "BOSSMAN'S PIZZA", "city": "San Jose", "distance_miles": 0.29}], "closest_miles": 0.06}, {"geoid": "6085512512", "centroid_lat": 37.0008369216802, "centroid_lon": -121.57569713969312, "population": 3406, "biz_per_1k": 0.88, "nearest_food_businesses": [{"name": "GLEN VIEW ELEMENTARY SCHOOL", "city": "Gilroy", "distance_miles": 0.07}, {"name": "GATEWAY SCHOOL-FOOD SERVICES", "city": "Gilroy", "distance_miles": 0.22}, {"name": "GILROY HIGH SCHOOL", "city": "Gilroy", "distance_miles": 0.25}], "closest_miles": 0.07}, {"geoid": "6085503711", "centroid_lat": 37.34986776463104, "centroid_lon": -121.84436552997389, "population": 4023, "biz_per_1k": 2.49, "nearest_food_businesses": [{"name": "MAYFAIR COMMUNITY CENTER", "city": "San Jose", "distance_miles": 0.07}, {"name": "ACE EMPOWER ACADEMY MIDDLE SCHOOL", "city": "San Jose", "distance_miles": 0.1}, {"name": "RENAISSANCE ACADEMY AT MATHSON", "city": "San Jose", "distance_miles": 0.11}], "closest_miles": 0.07}, {"geoid": "6085503511", "centroid_lat": 37.34260231190043, "centroid_lon": -121.81406380108686, "population": 3560, "biz_per_1k": 0.56, "nearest_food_businesses": [{"name": "OCALA MIDDLE SCHOOL", "city": "San Jose", "distance_miles": 0.08}, {"name": "ADELANTE DUAL LANGUAGE ACADEMY", "city": "San Jose", "distance_miles": 0.19}, {"name": "MT. PLEASANT HIGH SCHOOL", "city": "San Jose", "distance_miles": 0.33}], "closest_miles": 0.08}, {"geoid": "6085503508", "centroid_lat": 37.35451232552757, "centroid_lon": -121.81140999658092, "population": 5979, "biz_per_1k": 1.0, "nearest_food_businesses": [{"name": "MT. PLEASANT SCHOOL", "city": "San Jose", "distance_miles": 0.08}, {"name": "LOS TRES HERMANOS BAKERY", "city": "San Jose", "distance_miles": 0.31}, {"name": "7-ELEVEN FOOD STORE #14267A", "city": "San Jose", "distance_miles": 0.31}], "closest_miles": 0.08}, {"geoid": "6085501601", "centroid_lat": 37.32957087889213, "centroid_lon": -121.87330262933276, "population": 3558, "biz_per_1k": 1.41, "nearest_food_businesses": [{"name": "7-ELEVEN 15440F", "city": "San Jose", "distance_miles": 0.09}, {"name": "LOBO'S TACOS", "city": "San Jose", "distance_miles": 0.13}, {"name": "GREWAL FOODS & LIQUORS", "city": "San Jose", "distance_miles": 0.14}], "closest_miles": 0.09}, {"geoid": "6085501200", "centroid_lat": 37.34656010515615, "centroid_lon": -121.87874701528456, "population": 4163, "biz_per_1k": 0.96, "nearest_food_businesses": [{"name": "CHEVERE LATIN MARKET", "city": "San Jose", "distance_miles": 0.09}, {"name": "FAST PIZZA", "city": "San Jose", "distance_miles": 0.13}, {"name": "GURU BROTHERS MARKET", "city": "San Jose", "distance_miles": 0.15}], "closest_miles": 0.09}, {"geoid": "6085512043", "centroid_lat": 37.26169001193936, "centroid_lon": -121.80471575934052, "population": 5266, "biz_per_1k": 2.28, "nearest_food_businesses": [{"name": "EDENVALE SCHOOL", "city": "San Jose", "distance_miles": 0.1}, {"name": "DELIZIAS BAKERY 2 INC", "city": "San Jose", "distance_miles": 0.21}, {"name": "BIRRIERIA EL PRIMO #2", "city": "San Jose", "distance_miles": 0.25}], "closest_miles": 0.1}, {"geoid": "6085506304", "centroid_lat": 37.3122608118702, "centroid_lon": -121.97035760595516, "population": 5956, "biz_per_1k": 1.85, "nearest_food_businesses": [{"name": "WEST VALLEY MIDDLE SCHOOL", "city": "San Jose", "distance_miles": 0.1}, {"name": "STRATFORD SCHOOL", "city": "San Jose", "distance_miles": 0.18}, {"name": "THE HARKER SCHOOL", "city": "San Jose", "distance_miles": 0.28}], "closest_miles": 0.1}, {"geoid": "6085512056", "centroid_lat": 37.27213746805248, "centroid_lon": -121.80827900989824, "population": 3807, "biz_per_1k": 0.26, "nearest_food_businesses": [{"name": "SAMUEL STIPE SCHOOL", "city": "San Jose", "distance_miles": 0.11}, {"name": "CAROLINE DAVIS SCHOOL", "city": "San Jose", "distance_miles": 0.44}, {"name": "CAMINOS DE MICHOACAN RESTAURANT", "city": "San Jose", "distance_miles": 0.7}], "closest_miles": 0.11}, {"geoid": "6085503709", "centroid_lat": 37.36454867438957, "centroid_lon": -121.86204227915212, "population": 5862, "biz_per_1k": 1.88, "nearest_food_businesses": [{"name": "CULINARY BLOCK", "city": "San Jose", "distance_miles": 0.11}, {"name": "THE UNIQUE CUISINE @CULINARY BLOCK", "city": "San Jose", "distance_miles": 0.11}, {"name": "MAIN STREET BAGELS", "city": "San Jose", "distance_miles": 0.17}], "closest_miles": 0.11}, {"geoid": "6085503124", "centroid_lat": 37.28360680267794, "centroid_lon": -121.87182201498388, "population": 6075, "biz_per_1k": 2.96, "nearest_food_businesses": [{"name": "HILLTOP MANOR RESTAURANT", "city": "San Jose", "distance_miles": 0.12}, {"name": "CANOAS ELEMENTARY SCHOOL", "city": "San Jose", "distance_miles": 0.27}, {"name": "SAN JOSE MASONIC TEMPLE ASSOC", "city": "San Jose", "distance_miles": 0.36}], "closest_miles": 0.12}, {"geoid": "6085503116", "centroid_lat": 37.27744830103254, "centroid_lon": -121.85373199662382, "population": 6396, "biz_per_1k": 1.88, "nearest_food_businesses": [{"name": "85\u00b0C BAKERY CAFE", "city": "San Jose", "distance_miles": 0.12}, {"name": "EGGHEAD", "city": "San Jose", "distance_miles": 0.15}, {"name": "TACO BELL #30794", "city": "San Jose", "distance_miles": 0.18}], "closest_miles": 0.12}, {"geoid": "6085503902", "centroid_lat": 37.37353157328012, "centroid_lon": -121.82832045769077, "population": 6187, "biz_per_1k": 1.94, "nearest_food_businesses": [{"name": "SAINT JOHN VIANNEY SCHOOL", "city": "San Jose", "distance_miles": 0.13}, {"name": "SPICE VALLEY", "city": "San Jose", "distance_miles": 0.14}, {"name": "SAINT JOHN VIANNEY COMMUNITY CENTER", "city": "San Jose", "distance_miles": 0.17}], "closest_miles": 0.13}, {"geoid": "6085501502", "centroid_lat": 37.337497296271295, "centroid_lon": -121.86440265702645, "population": 4350, "biz_per_1k": 1.61, "nearest_food_businesses": [{"name": "OLINDER SCHOOL", "city": "San Jose", "distance_miles": 0.13}, {"name": "GREWAL FOOD & LIQUOR", "city": "San Jose", "distance_miles": 0.26}, {"name": "LA PLAZA MARKET GROCERY", "city": "San Jose", "distance_miles": 0.26}], "closest_miles": 0.13}, {"geoid": "6085503123", "centroid_lat": 37.297730084117816, "centroid_lon": -121.87783578409817, "population": 3872, "biz_per_1k": 1.29, "nearest_food_businesses": [{"name": "IBEW #332", "city": "San Jose", "distance_miles": 0.13}, {"name": "MALONE FOOD &  LIQOUR", "city": "San Jose", "distance_miles": 0.27}, {"name": "CULINARY CENTER", "city": "San Jose", "distance_miles": 0.31}], "closest_miles": 0.13}, {"geoid": "6085503213", "centroid_lat": 37.30167245766874, "centroid_lon": -121.83736789952864, "population": 4920, "biz_per_1k": 2.24, "nearest_food_businesses": [{"name": "SAN JOSE CONSERVATION CORPS AND CHARTER SCHOOL - SENTER CAMPUS", "city": "San Jose", "distance_miles": 0.14}, {"name": "THANH SON TOFU-CHE HIEN KHANH CORP", "city": "San Jose", "distance_miles": 0.19}, {"name": "CAFE QUEEN BAKERY", "city": "San Jose", "distance_miles": 0.19}], "closest_miles": 0.14}, {"geoid": "6085506402", "centroid_lat": 37.30166027238136, "centroid_lon": -121.94505282681284, "population": 5257, "biz_per_1k": 2.47, "nearest_food_businesses": [{"name": "CASTLEMONT ELEMENTARY SCHOOL", "city": "Campbell", "distance_miles": 0.14}, {"name": "POKE HOUSE", "city": "San Jose", "distance_miles": 0.24}, {"name": "BASKIN-ROBBINS", "city": "San Jose", "distance_miles": 0.24}], "closest_miles": 0.14}, {"geoid": "6085512042", "centroid_lat": 37.26610487927321, "centroid_lon": -121.81450903997997, "population": 2830, "biz_per_1k": 2.83, "nearest_food_businesses": [{"name": "CAROLINE DAVIS SCHOOL", "city": "San Jose", "distance_miles": 0.14}, {"name": "CAMINOS DE MICHOACAN RESTAURANT", "city": "San Jose", "distance_miles": 0.23}, {"name": "6 TO LATE FOOD & LIQUORS", "city": "San Jose", "distance_miles": 0.25}], "closest_miles": 0.14}, {"geoid": "6085503220", "centroid_lat": 37.28739355168065, "centroid_lon": -121.83804503819816, "population": 4691, "biz_per_1k": 2.77, "nearest_food_businesses": [{"name": "CAPTAIN JASON M DAHL  SCHOOL", "city": "San Jose", "distance_miles": 0.15}, {"name": "PANADERIA ORTIZ", "city": "San Jose", "distance_miles": 0.28}, {"name": "CONASUPER", "city": "San Jose", "distance_miles": 0.28}], "closest_miles": 0.15}, {"geoid": "6085503712", "centroid_lat": 37.362286538761886, "centroid_lon": -121.8466432208194, "population": 3770, "biz_per_1k": 2.65, "nearest_food_businesses": [{"name": "REGIONAL MEDICAL CENTER", "city": "San Jose", "distance_miles": 0.15}, {"name": "CANYON SPRINGS POST ACUTE", "city": "San Jose", "distance_miles": 0.16}, {"name": "CHEF P'S RESTAURANT", "city": "San Jose", "distance_miles": 0.27}], "closest_miles": 0.15}, {"geoid": "6085506702", "centroid_lat": 37.27432942273283, "centroid_lon": -121.96255926251732, "population": 5755, "biz_per_1k": 0.7, "nearest_food_businesses": [{"name": "SCHOOL CATERERS @ CANYON HEIGHTS AC", "city": "Campbell", "distance_miles": 0.15}, {"name": "7-ELEVEN #2367-14247D", "city": "Campbell", "distance_miles": 0.45}, {"name": "EFFIE'S", "city": "Campbell", "distance_miles": 0.46}], "closest_miles": 0.15}, {"geoid": "6085512054", "centroid_lat": 37.27607538828969, "centroid_lon": -121.83685807319624, "population": 4457, "biz_per_1k": 0.0, "nearest_food_businesses": [{"name": "KENTUCKY FRIED CHICKEN #096", "city": "San Jose", "distance_miles": 0.16}, {"name": "LA COSTA", "city": "San Jose", "distance_miles": 0.16}, {"name": "LA PRIMITA FRUTERIA Y NEVERIA", "city": "San Jose", "distance_miles": 0.16}], "closest_miles": 0.16}, {"geoid": "6085508305", "centroid_lat": 37.34009566520678, "centroid_lon": -122.03744231956348, "population": 5284, "biz_per_1k": 0.95, "nearest_food_businesses": [{"name": "CHIPOTLE MEXICAN GRILL #2549", "city": "Cupertino", "distance_miles": 0.18}, {"name": "YAYOI", "city": "Cupertino", "distance_miles": 0.18}, {"name": "OAKMONT MARKET- BAKERY", "city": "Cupertino", "distance_miles": 0.18}], "closest_miles": 0.18}, {"geoid": "6085503210", "centroid_lat": 37.29045053390158, "centroid_lon": -121.82286222772537, "population": 4067, "biz_per_1k": 1.48, "nearest_food_businesses": [{"name": "ROCKETSHIP SPARK ACADEMY", "city": "San Jose", "distance_miles": 0.18}, {"name": "SYLVANDALE JUNIOR HIGH SCHOOL", "city": "San Jose", "distance_miles": 0.21}, {"name": "ST MARIA GORETTI PARISH", "city": "San Jose", "distance_miles": 0.35}], "closest_miles": 0.18}, {"geoid": "6085502203", "centroid_lat": 37.30637566722056, "centroid_lon": -121.91806801570472, "population": 3875, "biz_per_1k": 2.58, "nearest_food_businesses": [{"name": "PANCHO'S SPORTS BAR & GRILL", "city": "San Jose", "distance_miles": 0.19}, {"name": "TEQUILA'S TAQUERIA", "city": "San Jose", "distance_miles": 0.19}, {"name": "LA SUPERIOR PALETERIA", "city": "San Jose", "distance_miles": 0.2}], "closest_miles": 0.19}, {"geoid": "6085501501", "centroid_lat": 37.341616925499, "centroid_lon": -121.85831450211572, "population": 4403, "biz_per_1k": 0.91, "nearest_food_businesses": [{"name": "GREWAL FOOD & LIQUOR", "city": "San Jose", "distance_miles": 0.19}, {"name": "LA PLAZA MARKET GROCERY", "city": "San Jose", "distance_miles": 0.19}, {"name": "LA PLAZA MARKET TAQUERIA", "city": "San Jose", "distance_miles": 0.19}], "closest_miles": 0.19}, {"geoid": "6085505902", "centroid_lat": 37.33449522986746, "centroid_lon": -121.95369440770436, "population": 3893, "biz_per_1k": 2.05, "nearest_food_businesses": [{"name": "VALLEY VILLAGE FOOD SERVICE", "city": "Santa Clara", "distance_miles": 0.2}, {"name": "STRATFORD SCHOOL", "city": "Santa Clara", "distance_miles": 0.2}, {"name": "ROCCO'S BALLPARK", "city": "Santa Clara", "distance_miles": 0.25}], "closest_miles": 0.2}, {"geoid": "6085503118", "centroid_lat": 37.31869295928473, "centroid_lon": -121.842999443477, "population": 4955, "biz_per_1k": 2.02, "nearest_food_businesses": [{"name": "JEANNE MEADOWS SCHOOL", "city": "San Jose", "distance_miles": 0.22}, {"name": "YERBA BUENA HIGH SCHOOL", "city": "San Jose", "distance_miles": 0.28}, {"name": "SHIRAKAWA ELEMENTARY SCHOOL", "city": "San Jose", "distance_miles": 0.32}], "closest_miles": 0.22}, {"geoid": "6085503707", "centroid_lat": 37.35789737519626, "centroid_lon": -121.85381293184902, "population": 4665, "biz_per_1k": 1.93, "nearest_food_businesses": [{"name": "ABE'S LIQUOR & MARKET", "city": "San Jose", "distance_miles": 0.22}, {"name": "TUU QUAN RESTAURANT", "city": "San Jose", "distance_miles": 0.23}, {"name": "CERRITO TAQUERIA 4", "city": "San Jose", "distance_miles": 0.23}], "closest_miles": 0.22}, {"geoid": "6085502906", "centroid_lat": 37.24781290326449, "centroid_lon": -121.90141337016304, "population": 5021, "biz_per_1k": 1.99, "nearest_food_businesses": [{"name": "STRATFORD SCHOOL", "city": "San Jose", "distance_miles": 0.22}, {"name": "DOMINO'S PIZZA #8512", "city": "San Jose", "distance_miles": 0.38}, {"name": "SAFEWAY #997 DELI", "city": "San Jose", "distance_miles": 0.38}], "closest_miles": 0.22}, {"geoid": "6085502204", "centroid_lat": 37.30138316372956, "centroid_lon": -121.92584232569456, "population": 3394, "biz_per_1k": 0.29, "nearest_food_businesses": [{"name": "DEL MAR HIGH SCHOOL", "city": "San Jose", "distance_miles": 0.23}, {"name": "DEL MAR HIGH SCHOOL-GYM CONCESSIONS", "city": "San Jose", "distance_miles": 0.23}, {"name": "DEL MAR HIGH SCHOOL CONCESSION BUILDING", "city": "San Jose", "distance_miles": 0.23}], "closest_miles": 0.23}, {"geoid": "6085506505", "centroid_lat": 37.297733582901806, "centroid_lon": -121.95728211669643, "population": 4187, "biz_per_1k": 1.91, "nearest_food_businesses": [{"name": "ROSEMARY SCHOOL", "city": "Campbell", "distance_miles": 0.23}, {"name": "YUMMEE SANDWICHES", "city": "Campbell", "distance_miles": 0.25}, {"name": "JACK IN THE BOX", "city": "Campbell", "distance_miles": 0.28}], "closest_miles": 0.23}, {"geoid": "6085512511", "centroid_lat": 37.00762937678684, "centroid_lon": -121.58107205505505, "population": 4774, "biz_per_1k": 1.47, "nearest_food_businesses": [{"name": "EL ROBLE ELEMENTARY SCHOOL", "city": "Gilroy", "distance_miles": 0.24}, {"name": "BROWNELL MIDDLE SCHOOL SERVERY", "city": "Gilroy", "distance_miles": 0.28}, {"name": "GILROY DONUT HOUSE", "city": "Gilroy", "distance_miles": 0.4}], "closest_miles": 0.24}, {"geoid": "6085512505", "centroid_lat": 37.02457339741529, "centroid_lon": -121.59250028418202, "population": 7683, "biz_per_1k": 2.73, "nearest_food_businesses": [{"name": "ROD KELLEY ELEMENTARY SCHOOL", "city": "Gilroy", "distance_miles": 0.24}, {"name": "MT MADONNA CONTINUATION HIGH SCHOOL", "city": "Gilroy", "distance_miles": 0.47}, {"name": "LUIGI APREA FUNDAMENTAL SCHOOL", "city": "Gilroy", "distance_miles": 0.61}], "closest_miles": 0.24}, {"geoid": "6085502103", "centroid_lat": 37.313319923197454, "centroid_lon": -121.9236600044329, "population": 4225, "biz_per_1k": 1.89, "nearest_food_businesses": [{"name": "SJCC CAFE", "city": "San Jose", "distance_miles": 0.26}, {"name": "LHCF - WHITE BLOSSOM CARE CENTER", "city": "San Jose", "distance_miles": 0.35}, {"name": "WENDY'S @ 782", "city": "San Jose", "distance_miles": 0.41}], "closest_miles": 0.26}, {"geoid": "6085502002", "centroid_lat": 37.31940295879712, "centroid_lon": -121.92092682404662, "population": 4985, "biz_per_1k": 1.6, "nearest_food_businesses": [{"name": "JACK IN THE BOX #439", "city": "San Jose", "distance_miles": 0.26}, {"name": "POPEYE'S LOUISIANA CHICKEN", "city": "San Jose", "distance_miles": 0.26}, {"name": "KATEGNA ETHIOPIAN RESTAURANT", "city": "San Jose", "distance_miles": 0.28}], "closest_miles": 0.26}, {"geoid": "6085512053", "centroid_lat": 37.24363283567285, "centroid_lon": -121.8534638629884, "population": 4815, "biz_per_1k": 1.45, "nearest_food_businesses": [{"name": "HILLS PRODUCE MARKET", "city": "San Jose", "distance_miles": 0.27}, {"name": "HAPPY SCOOPS ICE CREAM LLC", "city": "San Jose", "distance_miles": 0.27}, {"name": "DOMINO'S", "city": "San Jose", "distance_miles": 0.27}], "closest_miles": 0.27}, {"geoid": "6085503713", "centroid_lat": 37.36472521221361, "centroid_lon": -121.84100612978943, "population": 3082, "biz_per_1k": 0.65, "nearest_food_businesses": [{"name": "FOOTHILL HIGH SCHOOL", "city": "San Jose", "distance_miles": 0.28}, {"name": "FOOTHILL HIGH SCHOOL", "city": "San Jose", "distance_miles": 0.31}, {"name": "NEW ORIENTAL EXPRESS", "city": "San Jose", "distance_miles": 0.31}], "closest_miles": 0.28}, {"geoid": "6085503802", "centroid_lat": 37.38428801364773, "centroid_lon": -121.8355147941978, "population": 7647, "biz_per_1k": 1.18, "nearest_food_businesses": [{"name": "MCCOLLAM MILLARD SCHOOL", "city": "San Jose", "distance_miles": 0.29}, {"name": "LUCKY #233 DELI-BAKERY", "city": "San Jose", "distance_miles": 0.4}, {"name": "LUCKY #233 - GROCERY", "city": "San Jose", "distance_miles": 0.4}], "closest_miles": 0.29}, {"geoid": "6085503331", "centroid_lat": 37.294890967786735, "centroid_lon": -121.7588008721146, "population": 3481, "biz_per_1k": 1.15, "nearest_food_businesses": [{"name": "BISTRO AND BAR AT THE VILLAGES CLUBHOUSE", "city": "San Jose", "distance_miles": 0.29}, {"name": "THE VILLAGES GOLF & COUNTRY CLUB", "city": "San Jose", "distance_miles": 0.29}, {"name": "AK KITCHEN", "city": "San Jose", "distance_miles": 0.3}], "closest_miles": 0.29}, {"geoid": "6085508508", "centroid_lat": 37.3614065274223, "centroid_lon": -122.00200674373868, "population": 5873, "biz_per_1k": 1.87, "nearest_food_businesses": [{"name": "7-ELEVEN, STORE 2367-16136G", "city": "Santa Clara", "distance_miles": 0.3}, {"name": "PONDEROSA ELEMENTARY SCHOOL", "city": "Sunnyvale", "distance_miles": 0.42}, {"name": "BHARAT BAZAR, INC.", "city": "Sunnyvale", "distance_miles": 0.45}], "closest_miles": 0.3}, {"geoid": "6085503211", "centroid_lat": 37.31180866922532, "centroid_lon": -121.83243476919203, "population": 4651, "biz_per_1k": 0.65, "nearest_food_businesses": [{"name": "WING LEE FRESH POULTRY & MEAT", "city": "San Jose", "distance_miles": 0.3}, {"name": "STONEGATE SCHOOL", "city": "San Jose", "distance_miles": 0.31}, {"name": "BINH MINH TOFU MANUFACTURING", "city": "San Jose", "distance_miles": 0.31}], "closest_miles": 0.3}, {"geoid": "6085512022", "centroid_lat": 37.25519558704027, "centroid_lon": -121.81092596796265, "population": 6275, "biz_per_1k": 0.96, "nearest_food_businesses": [{"name": "BURRITO FACTORY", "city": "San Jose", "distance_miles": 0.3}, {"name": "YOLO CRAFT BEER-WINE-LIQUOR", "city": "San Jose", "distance_miles": 0.31}, {"name": "RAI'S INDIA BAZAR", "city": "San Jose", "distance_miles": 0.31}], "closest_miles": 0.3}, {"geoid": "6085512023", "centroid_lat": 37.25504681765028, "centroid_lon": -121.82435604273712, "population": 5346, "biz_per_1k": 1.5, "nearest_food_businesses": [{"name": "MOUNTAIN MIKE'S PIZZA", "city": "San Jose", "distance_miles": 0.34}, {"name": "YUM YUM DONUTS FRANCHISE #9038-D", "city": "San Jose", "distance_miles": 0.35}, {"name": "PEARL RIVER CHINESE RESTAURANT", "city": "San Jose", "distance_miles": 0.35}], "closest_miles": 0.34}, {"geoid": "6085503506", "centroid_lat": 37.34364831742058, "centroid_lon": -121.82723828848988, "population": 6220, "biz_per_1k": 0.96, "nearest_food_businesses": [{"name": "KENTUCKY FRIED CHICKEN @ 2342", "city": "San Jose", "distance_miles": 0.35}, {"name": "JACK'S LIQUORS", "city": "San Jose", "distance_miles": 0.35}, {"name": "QUIK STOP MARKET #551069", "city": "San Jose", "distance_miles": 0.36}], "closest_miles": 0.35}, {"geoid": "6085512514", "centroid_lat": 37.02299823476301, "centroid_lon": -121.58342189276776, "population": 2899, "biz_per_1k": 0.69, "nearest_food_businesses": [{"name": "LOPEZ PRODUCE MARKET", "city": "Gilroy", "distance_miles": 0.36}, {"name": "TAQUERIA Y BIRRIERIA EL PATRON", "city": "Gilroy", "distance_miles": 0.39}, {"name": "KD LIQUOR", "city": "Gilroy", "distance_miles": 0.41}], "closest_miles": 0.36}, {"geoid": "6085503332", "centroid_lat": 37.28152102785694, "centroid_lon": -121.73835376808368, "population": 5897, "biz_per_1k": 0.51, "nearest_food_businesses": [{"name": "STARBUCKS COFFEE #47311", "city": "San Jose", "distance_miles": 0.47}, {"name": "AROME CAFE", "city": "San Jose", "distance_miles": 0.78}, {"name": "BISTRO AND BAR AT THE VILLAGES CLUBHOUSE", "city": "San Jose", "distance_miles": 1.21}], "closest_miles": 0.47}, {"geoid": "6085512038", "centroid_lat": 37.234835238225365, "centroid_lon": -121.76207210459997, "population": 3217, "biz_per_1k": 0.31, "nearest_food_businesses": [{"name": "RITA LEDESMA ELEMENTRY SCHOOL", "city": "San Jose", "distance_miles": 0.48}, {"name": "FU KEE RESTAURANT", "city": "San Jose", "distance_miles": 0.59}, {"name": "JACK IN THE BOX #3464", "city": "San Jose", "distance_miles": 0.6}], "closest_miles": 0.48}], "elapsed_sec": 0.004812, "gpu": false}