"business_id","name","address","CITY","STATE","postal_code","latitude","longitude","phone_number","Geo_Address"
"PR0300002","LUCKY LIQUORS","63 S ABBOTT AV","MILPITAS","CA","95035","37.4272880000","-121.9136190000","+14089468485","POINT (-121.913619 37.427288)"
"PR0300004","7-ELEVEN #14240E","15 S ABBOTT AV","MILPITAS","CA","95035","37.4280280000","-121.9140700000","+14082628783","POINT (-121.91407 37.428028)"
"PR0300005","GREAT INDIAN CUISINE","2026 AGNEW RD","SANTA CLARA","CA","95054","37.3942023000","-121.9597311999","+14086432579","POINT (-121.9597311999 37.3942023)"
"PR0300006","BOB'S DISCOUNT LIQUORS #9","2036 AGNEW RD","SANTA CLARA","CA","95054","37.3940780000","-121.9603080000","+14088558081","POINT (-121.960308 37.394078)"
"PR0300007","DENNY'S","814 E AHWANEE AV","SUNNYVALE","CA","94086","37.3963040000","-122.0281180000","+14087471449","POINT (-122.028118 37.396304)"
"PR0300010","GREENLEE'S BAKERY","1081 THE ALAMEDA","SAN JOSE","CA","95126","37.3316680000","-121.9110640000","+14084604691","POINT (-121.911064 37.331668)"
"PR0300011","ROSIE'S NEW YORK PIZZA","1285 THE ALAMEDA","SAN JOSE","CA","95126","37.3320299000","-121.9126904000","+14082926767","POINT (-121.9126904 37.3320299)"
"PR0300012","LUNA MEXICAN RESTAURANT","1495 THE ALAMEDA AV","SAN JOSE","CA","95126","37.3339488000","-121.9152935000","+14088965900","POINT (-121.9152935 37.3339488)"
"PR0300013","MEDALLO RESTAURANT","1860 THE ALAMEDA ST","SAN JOSE","CA","95126","37.3404839000","-121.9216900000","+14087750850","POINT (-121.92169 37.3404839)"
"PR0300014","BILL'S CAFE","2089 THE ALAMEDA","SAN JOSE","CA","95126","37.3430160000","-121.9284260000",,"POINT (-121.928426 37.343016)"
"PR0300015","Taco Bell - 24783","2555 THE ALAMEDA","SANTA CLARA","CA","95050","37.3452000000","-121.9356100000","+14082443397","POINT (-121.93561 37.3452)"
"PR0300017","SAFEWAY #763","2605 THE ALAMEDA","SANTA CLARA","CA","95050","37.3459467000","-121.9365362000","+14082446873","POINT (-121.9365362 37.3459467)"
"PR0300018","ROUND TABLE PIZZA #1342","2615 THE ALAMEDA","SANTA CLARA","CA","95050","37.3453190000","-121.9363570000","+14082489123","POINT (-121.936357 37.345319)"
"PR0300020","THE HUT","3200 THE ALAMEDA","SANTA CLARA","CA","95050","37.3514690000","-121.9403290000","+18054408040","POINT (-121.940329 37.351469)"
"PR0300021","PALO ALTO HILLS GOLF & COUNTRY CLUB","3000 ALEXIS DR","PALO ALTO","CA","34304","37.3710470000","-122.1745020000","+16509481800","POINT (-122.174502 37.371047)"
"PR0300023","SENIOR CENTER KITCHEN","19655 ALLENDALE AV","SARATOGA","CA","95070","37.2666753000","-122.0160272000",,"POINT (-122.0160272 37.2666753)"
"PR0300024","CARNITAS EL RINCON","148 W ALMA AV","SAN JOSE","CA","95110","37.3141890000","-121.8764560000","+14082971756","POINT (-121.876456 37.314189)"
"PR0300025","PAGODA HOUSE","148 W ALMA AV A","SAN JOSE","CA","95110","37.3141890000","-121.8764560000","+14082933192","POINT (-121.876456 37.314189)"
"PR0300028","SAN JOSE ELKS LODGE #522 - KITCHEN & BAR","444 W ALMA AV","SAN JOSE","CA","95110","37.3086910000","-121.8837410000","+14082983880","POINT (-121.883741 37.308691)"
"PR0300029","SOUVLAKI GREEK SKEWERS","577 W ALMA AV","SAN JOSE","CA","95125","37.3090551000","-121.8874402000","+14082891452","POINT (-121.8874402 37.3090551)"
"PR0300034","CARAVAN LOUNGE","98 S ALMADEN AV","SAN JOSE","CA","95113","37.3329660000","-121.8922990000","+14089956220","POINT (-121.892299 37.332966)"
"PR0300035","6 TO LATE #6","690 S ALMADEN AV","SAN JOSE","CA","95110","37.3240070000","-121.8858610000","+14082860399","POINT (-121.885861 37.324007)"
"PR0300036","UNION MARKET","750 ALMADEN AV","SAN JOSE","CA","95110","37.3230470000","-121.8851290000","+14082958590","POINT (-121.885129 37.323047)"
"PR0300038","PAUL'S IMPERIO LIQUORS AND TAQUERIA #3","1401 ALMADEN RD","SAN JOSE","CA","95125","37.3126690000","-121.8787610000","+16692306970","POINT (-121.878761 37.312669)"
"PR0300040","HACIENDA MEXICAN KITCHEN","1616 ALMADEN RD","SAN JOSE","CA","95125","37.3077057000","-121.8783834999","+14083734696","POINT (-121.8783834999 37.3077057)"
"PR0300045","HOOZ DONUTS","2306 ALMADEN RD # 101","SAN JOSE","CA","95125","37.2904770000","-121.8801890000","+14086936318","POINT (-121.880189 37.290477)"
"PR0300046","MCDONALD'S RESTAURANT #0973","2434 ALMADEN EX","SAN JOSE","CA","95125","37.2899882000","-121.8797375000",,"POINT (-121.8797375 37.2899882)"
"PR0300047","7-ELEVEN #14270D","2440 ALMADEN EX","SAN JOSE","CA","95125","37.2896800000","-121.8799380000","+14089791702","POINT (-121.879938 37.28968)"
"PR0300048","MINI MART","2970 ALMADEN EX","SAN JOSE","CA","95125","37.2786130000","-121.8800320000","+14082671511","POINT (-121.880032 37.278613)"
"PR0300049","EL TORO MAMBO RESTOBAR","2988 ALMADEN EX","SAN JOSE","CA","95125","37.2781637000","-121.8799405000","+16692752009","POINT (-121.8799405 37.2781637)"
"PR0300050","JACK IN THE BOX","4602 ALMADEN EX","SAN JOSE","CA","95118","37.2626230000","-121.8760840000",,"POINT (-121.876084 37.262623)"
"PR0300051","BASKIN ROBBINS","5353 ALMADEN EX # 34","SAN JOSE","CA","95118","37.2541120000","-121.8779880000","+14082654321","POINT (-121.877988 37.254112)"
"PR0300054","SUBWAY #45877","5353 ALMADEN EX 28","SAN JOSE","CA","95118","37.2541120000","-121.8779880000","+14084487098","POINT (-121.877988 37.254112)"
"PR0300055","SEE'S CANDIES #27","5353 ALMADEN EX D-16","SAN JOSE","CA","95118","37.2575610000","-121.8897750000",,"POINT (-121.889775 37.257561)"
"PR0300056","ALMADEN SUSHI","6471-70 ALMADEN EX","SAN JOSE","CA","95120","37.2196620000","-121.8612270000","+14089972024","POINT (-121.861227 37.219662)"
"PR0300057","SAFEWAY #695","6477 ALMADEN EX","SAN JOSE","CA","95120","37.2196620000","-121.8612270000",,"POINT (-121.861227 37.219662)"
"PR0300067","A BITE OF WYOMING","2227 ALUM ROCK AV","SAN JOSE","CA","95116","37.3577948000","-121.8451785000","+14082594819","POINT (-121.8451785 37.3577948)"
"PR0300068","EL CATRIN BAR","2255 ALUM ROCK AV","SAN JOSE","CA","95116","37.3583980000","-121.8449180000","+14084288880","POINT (-121.844918 37.358398)"
"PR0300070","DONG QUE RESTAURANT","2852 ALUM ROCK AV","SAN JOSE","CA","95127","37.3635773000","-121.8326113000","+14082542927","POINT (-121.8326113 37.3635773)"
"PR0300072","PETERS BAKERY INC","3108 ALUM ROCK AV","SAN JOSE","CA","95127","37.3657832000","-121.8275479000","+14082583529","POINT (-121.8275479 37.3657832)"
"PR0300073","R & D LIQUOR","3120 ALUM ROCK AV","SAN JOSE","CA","95127","37.3659550000","-121.8274340000","+14084251713","POINT (-121.827434 37.365955)"
"PR0300074","SAN JOSE COUNTRY CLUB-FOOD","15571 ALUM ROCK AV","SAN JOSE","CA","95127","37.3824752000","-121.8170390000","+14082584901","POINT (-121.817039 37.3824752)"
"PR0300075","GUNN HIGH SCHOOL","780 ARASTRADERO RD","PALO ALTO","CA","94022","37.3995090000","-122.1331010000",,"POINT (-122.133101 37.399509)"
"PR0300076","CHEETAS GENTLEMAN'S CLUB","907 E ARQUES AV","SUNNYVALE","CA","94086","37.3812160000","-122.0089780000",,"POINT (-122.008978 37.381216)"
"PR0300077","SANTEE SCHOOL","1313 AUDUBON DR","SAN JOSE","CA","95122","37.3280360000","-121.8466900000",,"POINT (-121.84669 37.328036)"
"PR0300079","PALERMO","791 AUZERAIS AV","SAN JOSE","CA","95126","37.3218559000","-121.9023880000","+14086661939","POINT (-121.902388 37.3218559)"
"PR0300082","EDENVALE SCHOOL","285 AZUCAR AVE","SAN JOSE","CA","95111","37.2617390000","-121.8028750000",,"POINT (-121.802875 37.261739)"
"PR0300086","BOWERS SCHOOL","2755 BARKLEY AV","SANTA CLARA","CA","95051","37.3573100000","-121.9761890000",,"POINT (-121.976189 37.35731)"
"PR0300087","KENTUCKY FRIED CHICKEN #150","250 N BASCOM AV","SAN JOSE","CA","95124","37.3275350000","-121.9315880000",,"POINT (-121.931588 37.327535)"
"PR0300088","BILLS CAFE","302 N BASCOM AV","SAN JOSE","CA","95128","37.3233102000","-121.9318297000","+14082872455","POINT (-121.9318297 37.3233102)"
"PR0300089","PINK POODLE THEATRE THE","328 S BASCOM AV B","SAN JOSE","CA","95128","37.3230442000","-121.9318149000",,"POINT (-121.9318149 37.3230442)"
"PR0300090","TIP TOP LIQUOR","439 S BASCOM AV","SAN JOSE","CA","95128","37.3207380000","-121.9320630000","+14082943993","POINT (-121.932063 37.320738)"
"PR0300094","MINI GOURMET","599 S BASCOM AV","SAN JOSE","CA","95128","37.3164989000","-121.9319407000","+14089631661","POINT (-121.9319407 37.3164989)"
"PR0300096","MCDONALD'S RESTAURANT-898","898 S BASCOM AV","SAN JOSE","CA","95128","37.3109910000","-121.9311530000",,"POINT (-121.931153 37.310991)"
"PR0300097","COM TAM THANH","905 S BASCOM AV","SAN JOSE","CA","95128","37.3102872000","-121.9318970000","+14082798588","POINT (-121.931897 37.3102872)"
"PR0300100","7 ELEVEN 14299D","1335 S BASCOM AV","SAN JOSE","CA","95128","37.3008831000","-121.9322685000","+14082860351","POINT (-121.9322685 37.3008831)"
"PR0300103","JACK IN THE BOX #411","1737 S BASCOM AV","CAMPBELL","CA","95008","37.2917660000","-121.9321550000","+14083777074","POINT (-121.932155 37.291766)"
"PR0300104","LUNA MEXICAN KITCHEN","1875 S BASCOM AV # 570","CAMPBELL","CA","95008","37.2882795000","-121.9333534000","+14083202654","POINT (-121.9333534 37.2882795)"
"PR0300106","PRUNEYARD CINEMAS - KITCHEN","1875 S BASCOM AV","CAMPBELL","CA","95008","37.2882795000","-121.9333534000","+14087054691","POINT (-121.9333534 37.2882795)"
"PR0300107","WIENERSCHNITZEL","1940 S BASCOM AV","CAMPBELL","CA","95008","37.2881690000","-121.9311590000","+14083718409","POINT (-121.931159 37.288169)"
"PR0300108","TACO BRAVO","1950 S BASCOM AV","CAMPBELL","CA","95008","37.2880842000","-121.9315698000","+14083715611","POINT (-121.9315698 37.2880842)"
"PR0300109","7-ELEVEN FOOD STORE #2367-14298E","2223 S BASCOM AV","CAMPBELL","CA","95008","37.2829590000","-121.9318240000","+14083777060","POINT (-121.931824 37.282959)"
"PR0300112","KIRK'S STEAKBURGER","2509 S BASCOM AV","CAMPBELL","CA","95008","37.2776480000","-121.9325880000","+14083718729","POINT (-121.932588 37.277648)"
"PR0300113","QUIK STOP MARKET #550034","2704 S BASCOM AV","SAN JOSE","CA","95124","37.2721570000","-121.9357560000","+14083711160","POINT (-121.935756 37.272157)"
"PR0300114","CHARLEE'S LIQUOR MARKET","2905 S BASCOM AV","CAMPBELL","CA","95008","37.2692430000","-121.9385820000","+14083716790","POINT (-121.938582 37.269243)"
"PR0300116","KFC/A&W RESTAURANT","3144 S BASCOM AV","SAN JOSE","CA","95124","37.2663583000","-121.9406813000",,"POINT (-121.9406813 37.2663583)"
"PR0300117","BASCOM LIQUOR & FOOD","3750 S BASCOM AV","SAN JOSE","CA","95124","37.2597940000","-121.9466430000",,"POINT (-121.946643 37.259794)"
"PR0300118","BASCOM DONUTS","3966 S BASCOM AV","SAN JOSE","CA","95124","37.2586690000","-121.9472390000","+14083778599","POINT (-121.947239 37.258669)"
"PR0300121","CAFE DE FLORE INC","19480 BEAR CREEK RD","LOS GATOS","CA","950339519","37.1742897000","-122.0090179000","+15106843226","POINT (-122.0090179 37.1742897)"
"PR0300123","SANTA CLARA USD ADULT EDUC CTR","1840 BENTON ST","SANTA CLARA","CA","95050","37.3469680000","-121.9553360000",,"POINT (-121.955336 37.346968)"
"PR0300124","SANTA CLARA HIGH SCHOOL-CAFETERIA","3000 BENTON ST","SANTA CLARA","CA","95051","37.3464620000","-121.9823290000","+14084232600","POINT (-121.982329 37.346462)"
"PR0300125","7-ELEVEN FOOD STORE #14241","3565 BENTON ST","SANTA CLARA","CA","95051","37.3454830000","-121.9943670000","+14082048668","POINT (-121.994367 37.345483)"
"PR0300126","BOB'S DISCOUNT LIQUOR #2","3585 BENTON ST","SANTA CLARA","CA","95051","37.3455570000","-121.9950650000","+14082432780","POINT (-121.995065 37.345557)"
"PR0300127","SANTA TERESA GOLF COURSE BANQUET","260 BERNAL RD","SAN JOSE","CA","95119","37.2239245000","-121.7794390999",,"POINT (-121.7794390999 37.2239245)"
"PR0300128","ARBY'S ROAST BEEF","601 S BERNARDO AV","SUNNYVALE","CA","94087","37.3734449000","-122.0568720000",,"POINT (-122.056872 37.3734449)"
"PR0300129","CASA LUPE #2","671 S BERNARDO AV","SUNNYVALE","CA","94087","37.3719650000","-122.0576120000",,"POINT (-122.057612 37.371965)"
"PR0300130","HANAMARU","675 S BERNARDO AV","SUNNYVALE","CA","94087","37.3725011000","-122.0567865000","+14085245353","POINT (-122.0567865 37.3725011)"
"PR0300132","BAFS-BFM-CONCRETE BUILDING","1590 BERRYESSA RD","SAN JOSE","CA","95133","37.3694879000","-121.8787290000","+14084531110","POINT (-121.878729 37.3694879)"
"PR0300133","BAFS-BFM-COTTON CANDY","1590 BERRYESSA RD","SAN JOSE","CA","95133","37.3694879000","-121.8787290000","+14084531110","POINT (-121.878729 37.3694879)"
"PR0300138","LA FORET","21747 BERTRAM RD","SAN JOSE","CA","95120","37.1739400000","-121.8237800000","+16505181043","POINT (-121.82378 37.17394)"
"PR0300140","MINT LEAF CUISINE","14420 BIG BASIN WY","SARATOGA","CA","95070","37.2585410000","-122.0324710000","+14088723763","POINT (-122.032471 37.258541)"
"PR0300143","PLUMED HORSE RESTAURANT","14555 BIG BASIN WY","SARATOGA","CA","95070","37.2566190000","-122.0352320000","+14088674711","POINT (-122.035232 37.256619)"
"PR0300146","THE RANCH KITCHEN","14583 BIG BASIN WY UNIT 1A","SARATOGA","CA","95070","37.2563470000","-122.0358560000","+14086137772","POINT (-122.035856 37.256347)"
"PR0300147","MEXICO BAKERY SUPER MERCADO #2","601 BIRD AV","SAN JOSE","CA","95125","37.3200334000","-121.8980387000",,"POINT (-121.8980387 37.3200334)"
"PR0300149","CHERRY LIQUORS","1443 BIRD AV","SAN JOSE","CA","95125","37.3063617000","-121.8915175000","+14082934336","POINT (-121.8915175 37.3063617)"
"PR0300150","GREAT WALL RESTAURANT","1455 BIRD AV","SAN JOSE","CA","95125","37.3065907000","-121.8906286000","+14082871688","POINT (-121.8906286 37.3065907)"
"PR0300152","ZEST FOOD INC","10881 S BLANEY AV # B","CUPERTINO","CA","95014","37.3103450000","-122.0232740000","+16503023483","POINT (-122.023274 37.310345)"
"PR0300153","LEONARD HERMAN SCHOOL","5955 BLOSSOM AV","SAN JOSE","CA","95123","37.2392460000","-121.8398160000",,"POINT (-121.839816 37.239246)"
"PR0300154","BLOSSOM HILL SCHOOL","16400 BLOSSOM HILL RD","LOS GATOS","CA","95032","37.2347670000","-121.9559830000",,"POINT (-121.955983 37.234767)"
"PR0300156","7-ELEVEN #14251A","815 BING DR","SANTA CLARA","CA","95051","37.3386830000","-121.9927770000","+14082478727","POINT (-121.992777 37.338683)"
"PR0300157","YUM YUM DONUTS FRANCHISE #9038-D","400 BLOSSOM HILL RD","SAN JOSE","CA","95123","37.2512679000","-121.8284601000","+14083638121","POINT (-121.8284601 37.2512679)"
"PR0300158","DOWNER SQUARE BOTTLE SHOP","402 BLOSSOM HILL RD","SAN JOSE","CA","95123","37.2511670000","-121.8284880000","+14082817292","POINT (-121.828488 37.251167)"
"PR0300159","PEARL RIVER CHINESE RESTAURANT","414 BLOSSOM HILL RD","SAN JOSE","CA","95123","37.2512678000","-121.8284647000",,"POINT (-121.8284647 37.2512678)"
"PR0300160","JACK IN THE BOX #445","425 BLOSSOM HILL RD","SAN JOSE","CA","95123","37.2517080000","-121.8293030000",,"POINT (-121.829303 37.251708)"
"PR0300161","SMART & FINAL #829 - GROCERY","430 BLOSSOM HILL RD","SAN JOSE","CA","95123","37.2504040000","-121.8294700000","+14082001855","POINT (-121.82947 37.250404)"
"PR0300162","ANGELO'S ITALIAN RESTAURANT","436 BLOSSOM HILL RD","SAN JOSE","CA","95123","37.2512130000","-121.8298185000",,"POINT (-121.8298185 37.251213)"
"PR0300163","MCDONALD'S RESTAURANT #4588","456 BLOSSOM HILL RD","SAN JOSE","CA","95123","37.2508410000","-121.8318130000","+14082275811","POINT (-121.831813 37.250841)"
"PR0300164","MY KITCHEN","445 BLOSSOM HILL RD # K","SAN JOSE","CA","95123","37.2514082000","-121.8300602000","+14088386129","POINT (-121.8300602 37.2514082)"
"PR0300168","PIONEER HIGH SCHOOL","1290 BLOSSOM HILL RD","SAN JOSE","CA","95118","37.2472990000","-121.8841910000",,"POINT (-121.884191 37.247299)"
"PR0300169","BBQ PIT","1349 BLOSSOM HILL RD","SAN JOSE","CA","95118","37.2464090000","-121.8869010000",,"POINT (-121.886901 37.246409)"
"PR0300170","MCDONALD'S RESTAURANT #4472","1365 BLOSSOM HILL RD","SAN JOSE","CA","95118","37.2456810000","-121.8879640000",,"POINT (-121.887964 37.245681)"
"PR0300172","MANDARIN HOUSE","1375 BLOSSOM HILL RD STE 12","SAN JOSE","CA","95118","37.2449515000","-121.8900859000","+14085683503","POINT (-121.8900859 37.2449515)"
"PR0300173","GET N GO","1763 BLOSSOM HILL RD","SAN JOSE","CA","95124","37.2363810000","-121.9144970000","+14084023134","POINT (-121.914497 37.236381)"
"PR0300174","TEA GARDEN CHINESE KITCHEN","14030 BLOSSOM HILL RD","LOS GATOS","CA","95032","37.2348349000","-121.9507496000","+14083560022","POINT (-121.9507496 37.2348349)"
"PR0300175","ALTA VISTA ELEMENTARY SCHOOL","200 BLOSSOM VALLEY DR","LOS GATOS","CA","95032","37.2397190000","-121.9406330000",,"POINT (-121.940633 37.239719)"
"PR0300176","SAFEWAY #767","6150 BOLLINGER RD","SAN JOSE","CA","95129","37.3099826000","-122.0118860000",,"POINT (-122.011886 37.3099826)"
"PR0300177","99 HEALTHY WORLD","6136 BOLLINGER RD","SAN JOSE","CA","95129","37.3103840000","-122.0111060000","+14083661868","POINT (-122.011106 37.310384)"
"PR0300179","GUADALAJARA MARKET","829 BORREGAS AV","SUNNYVALE","CA","94085","37.3970700000","-122.0229180000","+14087349621","POINT (-122.022918 37.39707)"
"PR0300181","BRANHAM LOUNGE","1116 BRANHAM LN","SAN JOSE","CA","95118","37.2626386000","-121.8776170000","+14084451716","POINT (-121.877617 37.2626386)"
"PR0300183","JOHN MUIR JR HIGH SCHOOL","1260 BRANHAM LN","SAN JOSE","CA","95118","37.2611220000","-121.8831860000",,"POINT (-121.883186 37.261122)"
"PR0300184","7-ELEVEN FOOD STORE #14290","1421 BRANHAM LN","SAN JOSE","CA","95118","37.2591410000","-121.8911450000",,"POINT (-121.891145 37.259141)"
"PR0300185","BRET HARTE JR HIGH","7050 BRET HARTE DR","SAN JOSE","CA","95120","37.2121450000","-121.8461640000","+14085356270","POINT (-121.846164 37.212145)"
"PR0300186","RIVER GLEN ELEMENTARY SCHOOL","1088 BROADWAY","SAN JOSE","CA","95125","37.3109100000","-121.9018710000",,"POINT (-121.901871 37.31091)"
"PR0300187","REDWOOD STORE","20121 BROADWAY","LOS GATOS","CA","95030","37.1585220000","-121.9865100000","+14083531212","POINT (-121.98651 37.158522)"
"PR0300188","JOHN F KENNEDY MIDDLE SCHOOL","821 BUBB RD","CUPERTINO","CA","95014","37.3118030000","-122.0506030000",,"POINT (-122.050603 37.311803)"
"PR0300189","GUSSIE M BAKER SCHOOL","4845 BUCKNALL RD","SAN JOSE","CA","95130","37.2835180000","-121.9857510000",,"POINT (-121.985751 37.283518)"
"PR0300190","ALEX'S 49ER INN","2214 BUSINESS CL","SAN JOSE","CA","95128","37.3224940000","-121.9328020000","+14082799737","POINT (-121.932802 37.322494)"
"PR0300193","SPRING VALLEY GOLF COURSE-CLUB","3441 CALAVERAS BL","MILPITAS","CA","95035","37.4475890000","-121.8502450000","+14082621722","POINT (-121.850245 37.447589)"
"PR0300194","SAV-MORE LIQUOR STORE","689 CALDERON AV","MOUNTAIN VIEW","CA","94041","37.3851400000","-122.0756120000","+16509681070","POINT (-122.075612 37.38514)"
"PR0300196","RENE-ROSE ISLAND CUISINE","621 CALIENTE DR","SUNNYVALE","CA","94086","37.3910819000","-122.0134529000","+14087333691","POINT (-122.0134529 37.3910819)"
"PR0300197","MOLLIE STONES MARKET","164 CALIFORNIA AV","PALO ALTO","CA","94306","37.4289440000","-122.1433910000",,"POINT (-122.143391 37.428944)"
"PR0300201","NAMASTE INDIAN CUISINE","447 CALIFORNIA AV","PALO ALTO","CA","94306","37.4258721000","-122.1451764000","+16502726941","POINT (-122.1451764 37.4258721)"
"PR0300202","LA BODEGUITA DEL MEDIO","463 CALIFORNIA AV","PALO ALTO","CA","94306","37.4256413000","-122.1453639000","+14153267762","POINT (-122.1453639 37.4256413)"
"PR0300203","CALIFORNIA STREET MARKET","1595 CALIFORNIA ST","MOUNTAIN VIEW","CA","94041","37.3946730000","-122.0894170000","+16509675284","POINT (-122.089417 37.394673)"
"PR0300204","LIQUOR & FOOD MART","2339 CALIFORNIA ST","MOUNTAIN VIEW","CA","94040","37.4022939000","-122.1060452000","+16785222806","POINT (-122.1060452 37.4022939)"
"PR0300206","CHINA WOK RESTAURANT","2633 CALIFORNIA ST","MOUNTAIN VIEW","CA","94040","37.4060420000","-122.1118570000","+16509414373","POINT (-122.111857 37.406042)"
"PR0300207","7-ELEVEN 2366-14333E","2640 CALIFORNIA ST","MOUNTAIN VIEW","CA","94040","37.4065330000","-122.1117640000","+16509417792","POINT (-122.111764 37.406533)"
"PR0300208","JACK IN THE BOX #426","1301 CAMDEN AV","CAMPBELL","CA","95008","37.2695259000","-121.9459112000","+14083719313","POINT (-121.9459112 37.2695259)"
"PR0300209","WIENERSCHNITZEL #33","1330 CAMDEN AV","CAMPBELL","CA","95008","37.2699007999","-121.9452890000","+14085597721","POINT (-121.945289 37.2699007999)"
"PR0300210","FOSTERS FREEZE","1360 CAMDEN AV","CAMPBELL","CA","95008","37.2693430000","-121.9445170000","+14088795639","POINT (-121.944517 37.269343)"
"PR0300212","HOUSE OF PHO","1852 CAMDEN AV","SAN JOSE","CA","95124","37.2614139000","-121.9206972000","+14084408531","POINT (-121.9206972 37.2614139)"
"PR0300213","ROUND TABLE PIZZA #879","5385 CAMDEN AV","SAN JOSE","CA","95124","37.2411340000","-121.9046654000","+14082679600","POINT (-121.9046654 37.241134)"
"PR0300214","LELAND HIGH SCHOOL","6677 CAMDEN AV","SAN JOSE","CA","95120","37.2194890000","-121.8448540000",,"POINT (-121.844854 37.219489)"
"PR0300215","CASK N FLASK","14520 CAMDEN AV","SAN JOSE","CA","95124","37.2616330000","-121.9225480000","+14085929987","POINT (-121.922548 37.261633)"
"PR0300216","7-ELEVEN #14278G","14700 CAMDEN AV","SAN JOSE","CA","95124","37.2615910000","-121.9288500000","+14083778022","POINT (-121.92885 37.261591)"
"PR0300218","7 ELEVEN FOOD STORE #2367-14262D","5745 CAMDEN AV","SAN JOSE","CA","95124","37.2325350000","-121.9036960000","+14082671150","POINT (-121.903696 37.232535)"
"PR0300219","MANLEY'S DONUT","5721 CAMDEN AV","SAN JOSE","CA","95124","37.2345321000","-121.9035982000",,"POINT (-121.9035982 37.2345321)"
"PR0300220","CAMPBELL NUTRITION CENTER","1 W CAMPBELL AV","CAMPBELL","CA","95008","37.2871500000","-121.9498660000","+14088662146","POINT (-121.949866 37.28715)"
"PR0300221","CARDIFF LOUNGE","260 E CAMPBELL AV","CAMPBELL","CA","95008","37.2867640000","-121.9453020000",,"POINT (-121.945302 37.286764)"
"PR0300222","7 STARS BAR & GRILL","400 E CAMPBELL AV","CAMPBELL","CA","95008","37.2870447000","-121.9428300999","+14088760176","POINT (-121.9428300999 37.2870447)"
"PR0300224","JACK IN THE BOX #412","1450 W CAMPBELL AV","CAMPBELL","CA","95008","37.2857780000","-121.9757550000","+14083780621","POINT (-121.975755 37.285778)"
"PR0300226","BASKIN ROBBINS ICE CREAM-1720","1720 W CAMPBELL AV","CAMPBELL","CA","95008","37.2852940000","-121.9791300000",,"POINT (-121.97913 37.285294)"
"PR0300227","MT. PLEASANT SCHOOL","14275 CANDLER AV","SAN JOSE","CA","95127","37.3545110000","-121.8100490000",,"POINT (-121.810049 37.354511)"
"PR0300230","CUBA LIBRE","284 N CAPITOL AV","SAN JOSE","CA","95127","37.3693069000","-121.8420577000","+14083949565","POINT (-121.8420577 37.3693069)"
"PR0300232","COLOSSEUM NEW YORK PIZZA LLC","761 E CAPITOL AV","MILPITAS","CA","95035","37.4081855000","-121.8895875000","+14082628633","POINT (-121.8895875 37.4081855)"
"PR0300233","THE NOTE LOUNGE","765 E CAPITOL AV","MILPITAS","CA","95035","37.4081594000","-121.8895454000","+14082621203","POINT (-121.8895454 37.4081594)"
"PR0300234","LEE'S SUPERMARKET MILPITAS","777 E CAPITOL AV","MILPITAS","CA","95035","37.4079310000","-121.8890020000","+14088288168","POINT (-121.889002 37.407931)"
"PR0300235","S & S MARKET #1","1148 S CAPITOL AV","SAN JOSE","CA","95127","37.3498860000","-121.8258740000","+14089269236","POINT (-121.825874 37.349886)"
"PR0300240","CARLTON SCHOOL","2421 CARLTON AV","SAN JOSE","CA","95124","37.2483360000","-121.9464710000",,"POINT (-121.946471 37.248336)"
"PR0300241","IDELLA LIETZ ELEMENTARY SCHOOL","5300 CARTER AV","SAN JOSE","CA","95118","37.2420210000","-121.9021560000",,"POINT (-121.902156 37.242021)"
"PR0300245","AGAVE","194 CASTRO ST","MOUNTAIN VIEW","CA","94043","37.3939279000","-122.0789193000","+16509696767","POINT (-122.0789193 37.3939279)"
"PR0300246","RISTORANTE DON GIOVANNI","235 CASTRO ST","MOUNTAIN VIEW","CA","94041","37.3933330000","-122.0791340000","+14150619749","POINT (-122.079134 37.393333)"
"PR0300247","NEW MONGOLIAN BBQ","304 CASTRO ST","MOUNTAIN VIEW","CA","94041","37.3923916000","-122.0799607000","+16509680381","POINT (-122.0799607 37.3923916)"
"PR0300248","KIRIN BISTRO INC","485 CASTRO ST","MOUNTAIN VIEW","CA","94041","37.3904850000","-122.0806220000","+16509651059","POINT (-122.080622 37.390485)"
"PR0300252","CAPRI SCHOOL","850 CHAPMAN DR","CAMPBELL","CA","95008","37.2666700000","-121.9648090000",,"POINT (-121.964809 37.26667)"
"PR0300253","STEVENSON HOUSE - LA COMIDA SENIOR NUTRITION PROGRAM","455 E CHARLESTON RD","PALO ALTO","CA","94306","37.4192110000","-122.1133820000","+1650494194410","POINT (-122.113382 37.419211)"
"PR0300255","CAMPBELL SCHOOL OF INNOVATION","295 CHERRY LN","CAMPBELL","CA","95008","37.2836500000","-121.9548640000",,"POINT (-121.954864 37.28365)"
"PR0300256","BRACHER SCHOOL","2700 CHROMITE","SANTA CLARA","CA","95051","37.3672260000","-121.9763280000",,"POINT (-121.976328 37.367226)"
"PR0300257","CLUB RODEO BAR & GRILL","610 COLEMAN AV","SAN JOSE","CA","95110","37.3416410000","-121.9085450000","+14089200168","POINT (-121.908545 37.341641)"
"PR0300258","CLUB RODEO/RIO","640 COLEMAN AV","SAN JOSE","CA","95110","37.3413990000","-121.9092873000","+14089200168","POINT (-121.9092873 37.341399)"
"PR0300261","ROUND TABLE PIZZA","702 COLORADO AV","PALO ALTO","CA","94303","37.4331051000","-122.1283971000","+16503225914","POINT (-122.1283971 37.4331051)"
"PR0300262","7-ELEVEN FOOD STORE #2234-14315G","708 COLORADO ST","PALO ALTO","CA","94303","37.4330750000","-122.1281880000","+16503286369","POINT (-122.128188 37.433075)"
"PR0300263","KIPP DCP","1250 S KING RD","SAN JOSE","CA","95122","37.3380685000","-121.8413104000","+14082515600","POINT (-121.8413104 37.3380685)"
"PR0300265","WILLOW GLEN HIGH SCHOOL","2001 COTTLE AV","SAN JOSE","CA","95125","37.2907830000","-121.8959100000",,"POINT (-121.89591 37.290783)"
"PR0300266","WILLOW GLEN MIDDLE SCHOOL","2105 COTTLE AV","SAN JOSE","CA","95125","37.2898620000","-121.8953740000",,"POINT (-121.895374 37.289862)"
"PR0300267","COUNTRY LANE SCHOOL","5140 COUNTRY LN","SAN JOSE","CA","95129","37.2983780000","-121.9917670000",,"POINT (-121.991767 37.298378)"
"PR0300268","CHRISTOPHER SCHOOL","565 COYOTE RD","SAN JOSE","CA","95111","37.2794980000","-121.8180040000",,"POINT (-121.818004 37.279498)"
"PR0300273","WILLIAM C OVERFELT HIGH SCHOOL","1835 CUNNINGHAM AV","SAN JOSE","CA","95122","37.3319120000","-121.8292110000","+14082590540","POINT (-121.829211 37.331912)"
"PR0300276","DRY CREEK LIQUORS","1886 CURTNER AV","SAN JOSE","CA","95124","37.2755320000","-121.9232720000","+14083711327","POINT (-121.923272 37.275532)"
"PR0300277","LYNHAVEN ELEMENTARY SCHOOL","881 S CYPRESS AV","SAN JOSE","CA","95117","37.3111620000","-121.9599150000",,"POINT (-121.959915 37.311162)"
"PR0300278","CASTILLEJA SCHOOL","1310 BRYANT ST","PALO ALTO","CA","94301","37.4394340000","-122.1515940000",,"POINT (-122.151594 37.439434)"
"PR0300279","ABRAHAM LINCOLN HIGH SCHOOL","555 DANA AV","SAN JOSE","CA","95126","37.3285700000","-121.9232210000",,"POINT (-121.923221 37.32857)"
"PR0300281","LA ESPUELA MEXICAN FOOD","854 W DANA ST","MOUNTAIN VIEW","CA","94041","37.3928168000","-122.0803531000","+16509691464","POINT (-122.0803531 37.3928168)"
"PR0300282","DARTMOUTH MIDDLE SCHOOL","5575 DARTMOUTH DR","SAN JOSE","CA","95118","37.2397670000","-121.8964840000",,"POINT (-121.896484 37.239767)"
"PR0300283","DAVES AVENUE ELEMENTARY SCHOOL","17770 DAVES AV","MONTE SERENO","CA","95030","37.2406560000","-121.9808550000",,"POINT (-121.980855 37.240656)"
"PR0300286","DEL MAR HIGH SCHOOL-GYM CONCESSIONS","1224 DEL MAR AV","SAN JOSE","CA","95128","37.3039210000","-121.9285004000","+14085583033","POINT (-121.9285004 37.303921)"
"PR0300287","DELMAS MARKET","101 DELMAS AV","SAN JOSE","CA","95110","37.3301370000","-121.8977800000","+14082931303","POINT (-121.89778 37.330137)"
"PR0300288","STARBRITE MARKET","893 DELMAS AV","SAN JOSE","CA","95125","37.3171990000","-121.8932650000","+14082953712","POINT (-121.893265 37.317199)"
"PR0300289","CHEER LITRE LIQUORS","104 DEMPSEY RD","MILPITAS","CA","95035","37.4344430000","-121.8860920000","+14082626250","POINT (-121.886092 37.434443)"
"PR0300290","STRATFORD SCHOOL","5200 DENT AV","SAN JOSE","CA","95118","37.2487460000","-121.8975230000","+14088776300","POINT (-121.897523 37.248746)"
"PR0300291","SAN MARTIN MARKET","13320 DEPOT ST","SAN MARTIN","CA","95046","37.0857840000","-121.6094980000","+14086834063","POINT (-121.609498 37.085784)"
"PR0300292","SPICY WAY","42 DIXON RD","MILPITAS","CA","95035","37.4577951000","-121.9106824000","+14089569051","POINT (-121.9106824 37.4577951)"
"PR0300293","HANMARU KOREAN CUISINE","50 E DIXON RD","MILPITAS","CA","95035","37.4577835000","-121.9105145000","+14087819498","POINT (-121.9105145 37.4577835)"
"PR0300294","EASTERBROOK DISCOVERY SCHOOL","4835 DOYLE RD","SAN JOSE","CA","95129","37.3035110000","-121.9866730000",,"POINT (-121.986673 37.303511)"
"PR0300295","BOOKSIN ELEMENTARY SCHOOL","1590 DRY CREEK RD","SAN JOSE","CA","95125","37.2887340000","-121.9068000000",,"POINT (-121.9068 37.288734)"
"PR0300297","STOCKLMEIR CENTRAL KITCHEN","592 DUNHOLME WY","SUNNYVALE","CA","94087","37.3447200000","-122.0267070000",,"POINT (-122.026707 37.34472)"
"PR0300305","CAROLINE DAVIS SCHOOL","5035 EDENVIEW DR","SAN JOSE","CA","95111","37.2665870000","-121.8120320000",,"POINT (-121.812032 37.266587)"
"PR0300310","SUDAM KOREAN CUISINE","4546 EL CAMINO REAL A5","LOS ALTOS","CA","94022","37.4005910000","-122.1150120000","+16509491200","POINT (-122.115012 37.400591)"
"PR0300313","JACK IN THE BOX #421","4896 EL CAMINO REAL","LOS ALTOS","CA","94022","37.3983578000","-122.1087885000","+14085155966","POINT (-122.1087885 37.3983578)"
"PR0300314","AMBER INDIA RESTAURANT","4926 EL CAMINO REAL","LOS ALTOS","CA","94022","37.3980450000","-122.1076360000","+16509388100","POINT (-122.107636 37.398045)"
"PR0300316","WALGREENS #0689","121 E EL CAMINO REAL","MOUNTAIN VIEW","CA","94040","37.3797430000","-122.0720960000",,"POINT (-122.072096 37.379743)"
"PR0300317","JACK IN THE BOX #453","200 W EL CAMINO REAL","MOUNTAIN VIEW","CA","94040","37.3810619000","-122.0742143000","+16509644266","POINT (-122.0742143 37.3810619)"
"PR0300318","CLYDE'S LIQUOR","239 W EL CAMINO REAL","MOUNTAIN VIEW","CA","94040","37.3828570000","-122.0785660000","+16509619835","POINT (-122.078566 37.382857)"
"PR0300322","BASKIN ROBBINS","703 E EL CAMINO REAL","MOUNTAIN VIEW","CA","94040","37.3771039000","-122.0650859000","+16509647633","POINT (-122.0650859 37.3771039)"
"PR0300324","FOOD & BEVERAGES","820 E EL CAMINO REAL","MOUNTAIN VIEW","CA","94040","37.3764310000","-122.0623010000","+16509682805","POINT (-122.062301 37.376431)"
"PR0300328","GIORGIO'S ITALIAN GRILL & PIZZERIA","939 W EL CAMINO REAL","MOUNTAIN VIEW","CA","94040","37.3863430000","-122.0858050000",,"POINT (-122.085805 37.386343)"
"PR0300329","PASSAGE TO INDIA","1100 W EL CAMINO REAL","MOUNTAIN VIEW","CA","94040","37.3877130000","-122.0870780000",,"POINT (-122.087078 37.387713)"
"PR0300330","BASKIN ROBBINS ICE CREAM","1249 W EL CAMINO REAL","MOUNTAIN VIEW","CA","94040","37.3879791000","-122.0890219000","+16509409831","POINT (-122.0890219 37.3879791)"
"PR0300331","LE PETIT BISTRO","1405 W EL CAMINO REAL","MOUNTAIN VIEW","CA","94040","37.3886990000","-122.0907360000",,"POINT (-122.090736 37.388699)"
"PR0300332","CHICKEN G'S","1414 W EL CAMINO REAL","MOUNTAIN VIEW","CA","94040","37.3890925000","-122.0904304000","+16506055175","POINT (-122.0904304 37.3890925)"
"PR0300334","RATHORE'S KITCHEN","1711 W EL CAMINO REAL # B","MOUNTAIN VIEW","CA","94040","37.3904280000","-122.0940150000",,"POINT (-122.094015 37.390428)"
"PR0300337","FIVE GUYS BURGERS & FRIES","2098 EL CAMINO REAL","MOUNTAIN VIEW","CA","94040","37.3960340000","-122.1013850000","+16509621882","POINT (-122.101385 37.396034)"
"PR0300339","SUNDANCE THE STEAKHOUSE","1921 EL CAMINO REAL","PALO ALTO","CA","94306","37.4285500000","-122.1495520000",,"POINT (-122.149552 37.42855)"
"PR0300341","JACK IN THE BOX #455","2280 EL CAMINO REAL","PALO ALTO","CA","94306","37.4254010000","-122.1472820000",,"POINT (-122.147282 37.425401)"
"PR0300347","SHOW DE CARNES","3398 EL CAMINO REAL","PALO ALTO","CA","94306","37.4195770000","-122.1355513000",,"POINT (-122.1355513 37.419577)"
"PR0300348","DRIFTWOOD - MARKET","3450 EL CAMINO REAL","PALO ALTO","CA","94306","37.4192290000","-122.1351600000","+14154934162","POINT (-122.13516 37.419229)"
"PR0300349","DUMPLING CITY","3487 EL CAMINO REAL","PALO ALTO","CA","94306","37.4194450000","-122.1346300000","+16502726715","POINT (-122.13463 37.419445)"
"PR0300350","HONG KONG RESTAURANT","3691 EL CAMINO REAL","PALO ALTO","CA","94306","37.4185830000","-122.1327760000","+16282339543","POINT (-122.132776 37.418583)"
"PR0300352","ERNIE'S LIQUORS","3870 EL CAMINO REAL","PALO ALTO","CA","94306","37.4170800000","-122.1309060000",,"POINT (-122.130906 37.41708)"
"PR0300353","STARBUCKS COFFEE COMPANY","3885 EL CAMINO REAL","PALO ALTO","CA","94306","37.4175060000","-122.1302140000","+16508570133","POINT (-122.130214 37.417506)"
"PR0300354","SIAM FINE THAI CUISINE","3924 EL CAMINO REAL","PALO ALTO","CA","94306","37.4163110000","-122.1298290000","+14085075575","POINT (-122.129829 37.416311)"
"PR0300355","ZOMBIERUNNER COFFEE","3990 EL CAMINO REAL # C","PALO ALTO","CA","94306","37.4156170000","-122.1288210000","+16503252048","POINT (-122.128821 37.415617)"
"PR0300357","SO GONG DONG TOFU HOUSE","4127 EL CAMINO REAL A","PALO ALTO","CA","94306","37.4136000000","-122.1253940000","+16504248805","POINT (-122.125394 37.4136)"
"PR0300360","HOBEE'S PALO ALTO","4224 EL CAMINO REAL","PALO ALTO","CA","94306","37.4086625000","-122.1220235000","+16508566124","POINT (-122.1220235 37.4086625)"
"PR0300361","ELK'S LODGE #1471","4249 EL CAMINO REAL","PALO ALTO","CA","94306","37.4273120000","-122.1488520000","+16504934249","POINT (-122.148852 37.427312)"
"PR0300363","DINAH'S POOLSIDE RESTAURANT","4261 EL CAMINO REAL","PALO ALTO","CA","94306","37.4073680000","-122.1199090000","+16504932844","POINT (-122.119909 37.407368)"
"PR0300364","JACK IN THE BOX #423","911 EL CAMINO REAL","SANTA CLARA","CA","95050","37.3548228000","-121.9463535000","+14082440255","POINT (-121.9463535 37.3548228)"
"PR0300365","SAVE MAX FOOD & LIQUOR","1191 EL CAMINO REAL","SANTA CLARA","CA","95050","37.3537660000","-121.9494170000","+14082966622","POINT (-121.949417 37.353766)"
"PR0300366","KENTUCKY FRIED CHICKEN #154","1353 EL CAMINO REAL","SANTA CLARA","CA","95050","37.3534840000","-121.9512580000",,"POINT (-121.951258 37.353484)"
"PR0300367","SWARAJ INDIA","1855 EL CAMINO REAL","SANTA CLARA","CA","95050","37.3527041000","-121.9579109000","+15106313200","POINT (-121.9579109 37.3527041)"
"PR0300369","SUBWAY YP","2068 EL CAMINO REAL","SANTA CLARA","CA","95050","37.3522874000","-121.9615194000","+14082437288","POINT (-121.9615194 37.3522874)"
"PR0300381","PAV BHAJI AND MORE","2695 EL CAMINO REAL","SANTA CLARA","CA","95051","37.3527710000","-121.9752580000","+16692819935","POINT (-121.975258 37.352771)"
"PR0300383","GOLDEN WANG DONKATSU","2910 EL CAMINO REAL","SANTA CLARA","CA","95051","37.3518640000","-121.9792780000","+16693446979","POINT (-121.979278 37.351864)"
"PR0300384","MAIWAND MARKET OF SANTA CLARA","2915 EL CAMINO REAL","SANTA CLARA","CA","95051","37.3525080000","-121.9796070000","+14089850988","POINT (-121.979607 37.352508)"
"PR0300385","BIG MUG COFFEE ROASTER","3014 EL CAMINO REAL","SANTA CLARA","CA","95051","37.3522010000","-121.9810990000","+14088167932","POINT (-121.981099 37.352201)"
"PR0300386","SEO RAI","3044 EL CAMINO REAL","SANTA CLARA","CA","95051","37.3522748000","-121.9812822000","+14087867275","POINT (-121.9812822 37.3522748)"
"PR0300387","SULBING CAFE","3050 EL CAMINO REAL","SANTA CLARA","CA","95051","37.3518474000","-121.9818129999","+16509307707","POINT (-121.9818129999 37.3518474)"
"PR0300388","OBOK RESTAURANT","3072 EL CAMINO REAL","SANTA CLARA","CA","95051","37.3522010000","-121.9819190000","+14085570650","POINT (-121.981919 37.352201)"
"PR0300392","CHUNGDAM RESTAURANT","3180 EL CAMINO REAL","SANTA CLARA","CA","95051","37.3520578000","-121.9843445000","+14082461208","POINT (-121.9843445 37.3520578)"
"PR0300393","TONG SOON GARDEN RESTAURANT","3240 EL CAMINO REAL","SANTA CLARA","CA","95051","37.3522686000","-121.9857574000","+14086159988","POINT (-121.9857574 37.3522686)"
"PR0300394","LUCKY'S DISKOUNT LIQUOR","3290 EL CAMINO REAL","SANTA CLARA","CA","95051","37.3522270000","-121.9863210000","+14082064181","POINT (-121.986321 37.352227)"
"PR0300395","SEE'S CANDIES #53","3310 EL CAMINO REAL","SANTA CLARA","CA","95050","37.3522280000","-121.9871320000",,"POINT (-121.987132 37.352228)"
"PR0300396","JACK IN THE BOX #401","3367 EL CAMINO REAL","SANTA CLARA","CA","95051","37.3527670000","-121.9881440000","+14082497940","POINT (-121.988144 37.352767)"
"PR0300397","HANA BOTTLE SHOP","3425 EL CAMINO REAL","SANTA CLARA","CA","95051","37.3526776000","-121.9900021000","+14082484949","POINT (-121.9900021 37.3526776)"
"PR0300400","SHAWARMA FALAFEL SHAQ","3475 E EL CAMINO REAL","SANTA CLARA","CA","95051","37.3529080000","-121.9917070000","+14082169806","POINT (-121.991707 37.352908)"
"PR0300401","DENNY'S RESTAURANT","3715 EL CAMINO REAL","SANTA CLARA","CA","95051","37.3527700000","-121.9983350000","+14082961048","POINT (-121.998335 37.35277)"
"PR0300402","ROOSTER T FEATHERS COMEDY CLUB","157 W EL CAMINO REAL","SUNNYVALE","CA","94087","37.3662241000","-122.0301908000","+14087327781","POINT (-122.0301908 37.3662241)"
"PR0300403","MARIE CALLENDER'S RESTAURANT AND BAKERY","751 E EL CAMINO REAL","SUNNYVALE","CA","94087","37.3582990000","-122.0199770000","+14082453710","POINT (-122.019977 37.358299)"
"PR0300404","LOPEZ TAQUERIA 3","808 W EL CAMINO REAL","SUNNYVALE","CA","94087","37.3697235000","-122.0417982000","+14088248585","POINT (-122.0417982 37.3697235)"
"PR0300408","THE PATIO","948 E EL CAMINO REAL","SUNNYVALE","CA","94087","37.3517880000","-122.0118520000","+14082451250","POINT (-122.011852 37.351788)"
"PR0300411","CHAAT BHAVAN","976 E EL CAMINO REAL","SUNNYVALE","CA","94087","37.3518150000","-122.0093780000","+14084720229","POINT (-122.009378 37.351815)"
"PR0300413","408 LIQUOR","1053 E EL CAMINO REAL","SUNNYVALE","CA","94087","37.3524200000","-122.0045480000","+14083683581","POINT (-122.004548 37.35242)"
"PR0300415","SPORTY'S BIKINI BAR","1053 E EL CAMINO REAL 6","SUNNYVALE","CA","94086","37.3529890000","-122.0043260000","+14086886243","POINT (-122.004326 37.352989)"
"PR0300416","EAT MORE PHO","1066 E EL CAMINO REAL","SUNNYVALE","CA","94087","37.3516580000","-122.0031500000","+14082608410","POINT (-122.00315 37.351658)"
"PR0300417","ASIAN STREET EATERY","1146 W EL CAMINO REAL","SUNNYVALE","CA","94087","37.3729690000","-122.0547720000","+16692968394","POINT (-122.054772 37.372969)"
"PR0300418","PEPPERMINT INDIAN RESTAURANT","1169 W EL CAMINO REAL","SUNNYVALE","CA","94087","37.3738360000","-122.0548370000","+14083737982","POINT (-122.054837 37.373836)"
"PR0300419","CLUB RED","1183 W EL CAMINO REAL","SUNNYVALE","CA","94087","37.3738050000","-122.0553380000","+14087579010","POINT (-122.055338 37.373805)"
"PR0300420","GALAMART","1193 W EL CAMINO REAL","SUNNYVALE","CA","94086","37.3738940000","-122.0556470000","+14087305957","POINT (-122.055647 37.373894)"
"PR0300421","CINELUX ALMADEN CINEMA","2306 ALMADEN RD","SAN JOSE","CA","95125","37.2904770000","-121.8801890000",,"POINT (-121.880189 37.290477)"
"PR0300422","VAHL'S RESTAURANT","1513 EL DORADO ST","ALVISO","CA","95002","37.4257940000","-121.9770110000","+14082620731","POINT (-121.977011 37.425794)"
"PR0300423","7-ELEVEN #14300F","284 S 11TH ST","SAN JOSE","CA","95112","37.3368840000","-121.8765940000","+14082929105","POINT (-121.876594 37.336884)"
"PR0300425","MCDONALD'S RESTAURANT #1528","952 EL MONTE AV","MOUNTAIN VIEW","CA","94040","37.3914560000","-122.0963360000","+14159670328","POINT (-122.096336 37.391456)"
"PR0300429","BAYLANDS CAFE","1875 E EMBARCADERO RD","PALO ALTO","CA","94303","37.4527390000","-122.1148322000","+16508560881","POINT (-122.1148322 37.452739)"
"PR0300430","HE & C TEA POT","544 EMERSON ST","PALO ALTO","CA","94301","37.4439600000","-122.1620650000","+16505210069","POINT (-122.162065 37.44396)"
"PR0300431","PENINSULA FOUNTAIN & GRILL","566 EMERSON ST","PALO ALTO","CA","94301","37.4440231000","-122.1617693000",,"POINT (-122.1617693 37.4440231)"
"PR0300433","BELLARMINE COLLEGE PREP","850 ELM ST","SAN JOSE","CA","95126","37.3415190000","-121.9186430000",,"POINT (-121.918643 37.341519)"
"PR0300438","SANTA TERESA SCHOOL","6200 ENCINAL DR","SAN JOSE","CA","95119","37.2348440000","-121.7958650000","+14082278300","POINT (-121.795865 37.234844)"
"PR0300439","RED HOT WOK","10074 E ESTATES AV","CUPERTINO","CA","95014","37.3222400000","-122.0147610000","+14089962999","POINT (-122.014761 37.32224)"
"PR0300443","THE DONS DELI","620 E EVELYN AV","SUNNYVALE","CA","94086","37.3729050000","-122.0206450000",,"POINT (-122.020645 37.372905)"
"PR0300448","BERTS STADIUM SPORTS BAR","208 S FAIR OAKS AV","SUNNYVALE","CA","94086","37.3736580000","-122.0206540000","+14087491080","POINT (-122.020654 37.373658)"
"PR0300450","CHAVEZ SUPERMARKET","666 N FAIR OAKS AV","SUNNYVALE","CA","94085","37.3901699000","-122.0139058000","+14087363793","POINT (-122.0139058 37.3901699)"
"PR0300451","3 POTRILLOS TAQUERIA","670 N FAIR OAKS AV","SUNNYVALE","CA","94085","37.3645290000","-122.0243530000","+14087358657","POINT (-122.024353 37.364529)"
"PR0300452","FIESTA LIQUOR","672 N FAIR OAKS AV","SUNNYVALE","CA","94085","37.3904296000","-122.0138885999","+14087491922","POINT (-122.0138885999 37.3904296)"
"PR0300453","EL RANCHO FOODS","211 1ST ST","GILROY","CA","95020","37.0141438000","-121.5755193000","+14084275195","POINT (-121.5755193 37.0141438)"
"PR0300454","EL RANCHO FOODS - BAKERY","211 1ST ST","GILROY","CA","95020","37.0141438000","-121.5755193000","+14084275195","POINT (-121.5755193 37.0141438)"
"PR0300455","TAQUERIA Y MARISCOS CHAPALA","303 1ST ST","GILROY","CA","95020","37.0139702000","-121.5762282000","+14088428925","POINT (-121.5762282 37.0139702)"
"PR0300456","7 ELEVEN 14301F","691 1ST ST","GILROY","CA","95020","37.0138797000","-121.5814381000","+14088423201","POINT (-121.5814381 37.0138797)"
"PR0300459","STANDARD LIQUOR","303 1ST ST","LOS ALTOS","CA","94022","37.3770650000","-122.1169210000","+16509411023","POINT (-122.116921 37.377065)"
"PR0300460","DRAEGER'S SUPERMARKET INC","342 1ST ST","LOS ALTOS","CA","94022","37.3764420000","-122.1169740000",,"POINT (-122.116974 37.376442)"
"PR0300461","KATHMANDU CUISINE","376 1ST ST","LOS ALTOS","CA","94022","37.3757611000","-122.1164507000","+19258581615","POINT (-122.1164507 37.3757611)"
"PR0300463","TESKE'S GERMANIA RESTAURANT","255 N 1ST ST","SAN JOSE","CA","95113","37.3319265000","-121.8874546000","+14082920291","POINT (-121.8874546 37.3319265)"
"PR0300464","INTERNATIONAL HOUSE OF PANCAKES","644 N 1ST ST","SAN JOSE","CA","95112","37.3480310000","-121.8989620000",,"POINT (-121.898962 37.348031)"
"PR0300466","HYDE PARK LIQUORS","1330 N 1ST ST","SAN JOSE","CA","95112","37.3607932000","-121.9083528000","+14088324574","POINT (-121.9083528 37.3607932)"
"PR0300467","HOUSE OF GENJI","1335 N 1ST ST","SAN JOSE","CA","95112","37.3608395000","-121.9091225000",,"POINT (-121.9091225 37.3608395)"
"PR0300469","ORIGINAL JOE'S","301 S 1ST ST","SAN JOSE","CA","95113","37.3314258000","-121.8870736000",,"POINT (-121.8870736 37.3314258)"
"PR0300471","THE CONTINENTAL BAR","349 S 1ST ST","SAN JOSE","CA","95113","37.3305400000","-121.8867350000","+14089471975","POINT (-121.886735 37.33054)"
"PR0300472","RESTAURANT LA CEIBA","799 S 1ST ST","SAN JOSE","CA","951132814","37.3239710000","-121.8819270000","+14083525131","POINT (-121.881927 37.323971)"
"PR0300476","WIENERSCHNITZEL #134","935 S 1ST ST","SAN JOSE","CA","95110","37.3218880000","-121.8799140000","+14082977020","POINT (-121.879914 37.321888)"
"PR0300478","TRINE'S RESTAURANT","995 S 1ST ST","SAN JOSE","CA","95110","37.3211076000","-121.8787163000",,"POINT (-121.8787163 37.3211076)"
"PR0300480","BURGER CORNER","1101 S 1ST ST","SAN JOSE","CA","95110","37.3196730000","-121.8778030000","+14082930900","POINT (-121.877803 37.319673)"
"PR0300484","6 TO LATE","2784 MONTEREY RD","SAN JOSE","CA","95111","37.2925703000","-121.8502152000","+14082292555","POINT (-121.8502152 37.2925703)"
"PR0300485","LA CANASTA MARKET","3074 MONTEREY HY","SAN JOSE","CA","95111","37.2881130000","-121.8453860000","+14082275700","POINT (-121.845386 37.288113)"
"PR0300486","TACOMANIA RESTAURANT","5292 MONTEREY HY","SAN JOSE","CA","95111",,,"+14082258353",
"PR0300488","AUGUST BOEGER SCHOOL","1944 FLINT AV","SAN JOSE","CA","95127","37.3471460000","-121.8013400000",,"POINT (-121.80134 37.347146)"
"PR0300490","M TAPAS KOREA","3546 FLORA VISTA AV","SANTA CLARA","CA","95051","37.3532330000","-121.9925555000","+14089905120","POINT (-121.9925555 37.353233)"
"PR0300492","O'CONNOR HOSPITAL","2105 FOREST AV","SAN JOSE","CA","95128","37.3282930000","-121.9374090000","+14089472500","POINT (-121.937409 37.328293)"
"PR0300494","BASKIN ROBBINS","2467 FOREST AV","SAN JOSE","CA","95128","37.3269919000","-121.9491231000","+14082960707","POINT (-121.9491231 37.3269919)"
"PR0300495","CHEVERE LATIN MARKET","198 N 14TH ST","SAN JOSE","CA","95112","37.3453640000","-121.8790990000","+15108605092","POINT (-121.879099 37.345364)"
"PR0300496","SABA GRILL","205 N 4TH ST","SAN JOSE","CA","95112","37.3407200000","-121.8899030000","+14083341452","POINT (-121.889903 37.34072)"
"PR0300497","LA VICTORIA #5","291 N 4TH ST","SAN JOSE","CA","95112","37.3417920000","-121.8905190000","+14083201595","POINT (-121.890519 37.341792)"
"PR0300498","KELLY'S LIQUOR STORE","498 N 4TH ST","SAN JOSE","CA","95112","37.3462420000","-121.8936270000","+15105650203","POINT (-121.893627 37.346242)"
"PR0300499","SMILE MARKET","499 N 4TH ST","SAN JOSE","CA","95112","37.3461150000","-121.8938910000","+14082985688","POINT (-121.893891 37.346115)"
"PR0300500","FOSTER FREEZE-698","698 N 4TH ST","SAN JOSE","CA","95112","37.3505874000","-121.8969817000",,"POINT (-121.8969817 37.3505874)"
"PR0300501","WIENERSCHNITZEL #122","702 N 4TH ST","SAN JOSE","CA","95112","37.3508840000","-121.8969500000","+14089989837","POINT (-121.89695 37.350884)"
"PR0300502","HUNAN TASTE","998 N 4TH ST","SAN JOSE","CA","95112","37.3566503000","-121.9015077000","+14082951186","POINT (-121.9015077 37.3566503)"
"PR0300503","HYDE PARK LOUNGE","1070 N 4TH ST","SAN JOSE","CA","95112","37.3585236000","-121.9026013000","+14088282324","POINT (-121.9026013 37.3585236)"
"PR0300504","LA VICTORIA TAQUERIA #6","1415 N 4TH ST","SAN JOSE","CA","95112","37.3634670000","-121.9070380000","+14089823121","POINT (-121.907038 37.363467)"
"PR0300505","EVERGREEN SCHOOL","3010 FOWLER RD","SAN JOSE","CA","95135","37.3107450000","-121.7794990000",,"POINT (-121.779499 37.310745)"
"PR0300506","SUPREME DONUTS","1093 FOXWORTHY AV","SAN JOSE","CA","95118","37.2784936000","-121.8791862000","+14082670106","POINT (-121.8791862 37.2784936)"
"PR0300507","ZANOTTO'S WILLOW GLEN-SUPER MARKET","1421 FOXWORTHY AV","SAN JOSE","CA","95118","37.2750650000","-121.8918490000","+14082640103","POINT (-121.891849 37.275065)"
"PR0300508","GIORGIO'S PIZZA HOUSE","1445 FOXWORTHY AV","SAN JOSE","CA","95118","37.2756320000","-121.8916370000",,"POINT (-121.891637 37.275632)"
"PR0300509","MEXICO LINDO RESTAURANT","1415 FOXWORTHY AV","SAN JOSE","CA","95118","37.2751755000","-121.8909325000",,"POINT (-121.8909325 37.2751755)"
"PR0300511","GROCERY OUTLET SOUTH SAN JOSE","1665 FOXWORTHY AV","SAN JOSE","CA","95124","37.2704618000","-121.9068264000","+14084405920","POINT (-121.9068264 37.2704618)"
"PR0300513","BRONCOS","1251 FRANKLIN SQ","SANTA CLARA","CA","95050","37.3484116000","-121.9484341000",,"POINT (-121.9484341 37.3484116)"
"PR0300514","SANTA CLARA LIQUORS","1001 MONROE ST","SANTA CLARA","CA","95050","37.3486550000","-121.9480870000","+14087591580","POINT (-121.948087 37.348655)"
"PR0300517","MOM'S BIRYANI","103 E FREMONT AV","SUNNYVALE","CA","94087","37.3529862000","-122.0317395999","+14086809804","POINT (-122.0317395999 37.3529862)"
"PR0300520","JAKES OF SUNNYVALE","174 E FREMONT AV","SUNNYVALE","CA","94087","37.3520547000","-122.0313643000",,"POINT (-122.0313643 37.3520547)"
"PR0300524","TOM'S DEPOT","991 FREMONT AV","LOS ALTOS","CA","94024","37.3528433000","-122.0873802000","+16509488515","POINT (-122.0873802 37.3528433)"
"PR0300526","7-ELEVEN FOOD STORE #14281C","2170 FRUITDALE AV","SAN JOSE","CA","95128","37.3105510000","-121.9313260000","+14082860351","POINT (-121.931326 37.310551)"
"PR0300527","REDWOOD MIDDLE SCHOOL","13925 FRUITVALE AV","SARATOGA","CA","95070","37.2660650000","-122.0140440000",,"POINT (-122.014044 37.266065)"
"PR0300528","THE OAK BISTRO - THOMAS CUISINE","14000 FRUITVALE AV","SARATOGA","CA","95070","37.2654833000","-122.0110190000","+12088845766","POINT (-122.011019 37.2654833)"
"PR0300529","GURU'S MARKET","148 GEORGE ST","SAN JOSE","CA","95110","37.3467230000","-121.9013580000","+14082953344","POINT (-121.901358 37.346723)"
"PR0300530","EARL FROST SCHOOL","530 GETTYSBURG DR","SAN JOSE","CA","95123","37.2474620000","-121.8369510000",,"POINT (-121.836951 37.247462)"
"PR0300531","NODDIN ELEMENTARY SCHOOL","1755 GILDA WY","SAN JOSE","CA","95124","37.2377870000","-121.9137860000",,"POINT (-121.913786 37.237787)"
"PR0300533","CHALLENGER SCHOOL - BERRYESSA","711 E GISH RD","SAN JOSE","CA","95112","37.3705670000","-121.8960270000","+14089982860","POINT (-121.896027 37.370567)"
"PR0300539","NOBLE SCHOOL","3466 GROSSMONT AV","SAN JOSE","CA","95132","37.3962390000","-121.8388350000",,"POINT (-121.838835 37.396239)"
"PR0300542","THYME","496 HAMILTON AV","PALO ALTO","CA","94301","37.4474809000","-122.1579914000","+16507046828","POINT (-122.1579914 37.4474809)"
"PR0300546","SAFEWAY #1483","1530 HAMILTON AV","SAN JOSE","CA","95125","37.2936010000","-121.9106660000",,"POINT (-121.910666 37.293601)"
"PR0300548","BOSS LIQUOR","4175 HAMILTON AV","SAN JOSE","CA","95130","37.2939390000","-121.9757060000","+14084251713","POINT (-121.975706 37.293939)"
"PR0300550","JOHN MUIR ELEMENTARY SCHOOL","6560 HANOVER DR","SAN JOSE","CA","95129","37.3002700000","-122.0192980000",,"POINT (-122.019298 37.30027)"
"PR0300551","SIEMENS PALO ALTO CAFE","3130 HANSEN WY","PALO ALTO","CA","94304","37.4187449000","-122.1453434000","+14088353577","POINT (-122.1453434 37.4187449)"
"PR0300552","DELOS BAGBY SCHOOL","1840 HARRIS AV","SAN JOSE","CA","95124","37.2782110000","-121.9236240000",,"POINT (-121.923624 37.278211)"
"PR0300553","CHALLENGER SCHOOL - HARWOOD","4949 HARWOOD RD","SAN JOSE","CA","95124","37.2475920000","-121.9132420000","+14087230111","POINT (-121.913242 37.247592)"
"PR0300554","CHERRY CHASE SCHOOL","1138 HEATHERSTONE AV","SUNNYVALE","CA","94086","37.3669420000","-122.0563140000",,"POINT (-122.056314 37.366942)"
"PR0300555","ELK'S CLUB 1567","2765 HECKER PASS RD","GILROY","CA","95020","37.0138020000","-121.6231510000","+14088429397","POINT (-121.623151 37.013802)"
"PR0300557","HELLYER SCHOOL","725 HELLYER AV","SAN JOSE","CA","95111","37.2845450000","-121.8202300000",,"POINT (-121.82023 37.284545)"
"PR0300558","SARATOGA HIGH SCHOOL","20300 HERRIMAN AV","SARATOGA","CA","95070","37.2672390000","-122.0300290000","+14088673411","POINT (-122.030029 37.267239)"
"PR0300559","LOS GATOS HIGH SCHOOL","20 HIGH SCHOOL CT","LOS GATOS","CA","95032","37.2216980000","-121.9768980000","+14083542520","POINT (-121.976898 37.221698)"
"PR0300560","PENINSULA CREAMERY DAIRY FOUNTAIN","900 HIGH ST","PALO ALTO","CA","94302","37.4405770000","-122.1582090000",,"POINT (-122.158209 37.440577)"
"PR0300561","CAPITOL 6 DRIVE-IN & SWAP","3630 HILLCAP AV","SAN JOSE","CA","95136","37.2809230000","-121.8441360000",,"POINT (-121.844136 37.280923)"
"PR0300562","SAN JOSE JOB CORPS","3485 EAST HILLS DR","SAN JOSE","CA","95127","37.3662632000","-121.8189652000",,"POINT (-121.8189652 37.3662632)"
"PR0300563","METROPOLITAN EDUCATION DISTRICT","760 HILLSDALE AV BLDG 800","SAN JOSE","CA","95136","37.2793788000","-121.8661769000","+14087234272","POINT (-121.8661769 37.2793788)"
"PR0300566","FRESH MEAT FACTORY","622 HOLLENBECK AV","SUNNYVALE","CA","94087","37.3693420000","-122.0409690000","+17276676771","POINT (-122.040969 37.369342)"
"PR0300567","TANDOORI PIZZA","1663 HOLLENBECK AV","SUNNYVALE","CA","94087","37.3388858000","-122.0426148000","+14088545500","POINT (-122.0426148 37.3388858)"
"PR0300568","CVS/PHARMACY #9198","1675 HOLLENBECK AV","SUNNYVALE","CA","94087","37.3379030000","-122.0418690000","+14087357740","POINT (-122.041869 37.337903)"
"PR0300571","PIZZA GUYS","1998 HOMESTEAD RD STE 101","SANTA CLARA","CA","95050","37.3434286000","-121.9590375000","+19252463993","POINT (-121.9590375 37.3434286)"
"PR0300572","SAFEWAY #700","2760 HOMESTEAD RD","SANTA CLARA","CA","95051","37.3386212000","-121.9759037000",,"POINT (-121.9759037 37.3386212)"
"PR0300574","COOKING COOKING","2830 HOMESTEAD RD","SANTA CLARA","CA","95051","37.3377950000","-121.9775300000",,"POINT (-121.97753 37.337795)"
"PR0300575","MCDONALD'S RESTAURANT #5672","3509 HOMESTEAD RD","SANTA CLARA","CA","95051","37.3385650000","-121.9934850000",,"POINT (-121.993485 37.338565)"
"PR0300579","JX CUISINE","3581 HOMESTEAD RD","SANTA CLARA","CA","95051","37.3382286000","-121.9950238000","+14085644958","POINT (-121.9950238 37.3382286)"
"PR0300582","OAKMONT PRODUCE MARKET","19944 HOMESTEAD RD","CUPERTINO","CA","95014","37.3375010000","-122.0221110000","+14082550571","POINT (-122.022111 37.337501)"
"PR0300583","GOCHI JAPANESE FUSION TAPAS","19980 E HOMESTEAD RD","CUPERTINO","CA","95014","37.3368137000","-122.0227880000",,"POINT (-122.022788 37.3368137)"
"PR0300586","7-ELEVEN FOOD STORE 2367-14320-F","21220 HOMESTEAD RD","CUPERTINO","CA","950140202","37.3373760000","-122.0450970000","+14087358004","POINT (-122.045097 37.337376)"
"PR0300587","CUPERTINO MIDDLE SCHOOL","1650 BERNARDO AV","SUNNYVALE","CA","94087","37.3390080000","-122.0591860000",,"POINT (-122.059186 37.339008)"
"PR0300588","PEET'S COFFEE & TEA","22350 HOMESTEAD RD","CUPERTINO","CA","95014","37.3374236000","-122.0660479000","+14086361850","POINT (-122.0660479 37.3374236)"
"PR0300592","GARDNER SCHOOL","502 ILLINOIS AV","SAN JOSE","CA","95125","37.3219870000","-121.8961950000",,"POINT (-121.896195 37.321987)"
"PR0300594","SHOP N GO","29 S JACKSON AV","SAN JOSE","CA","95116","37.3578058000","-121.8435178000","+14085929987","POINT (-121.8435178 37.3578058)"
"PR0300595","EL GRULLO MEXICAN FOOD","41 S JACKSON AV","SAN JOSE","CA","95116","37.3574680000","-121.8432100000","+14089376083","POINT (-121.84321 37.357468)"
"PR0300597","7 BAMBOO LOUNGE","162 JACKSON ST","SAN JOSE","CA","95112","37.3485505000","-121.8952391000","+14082799937","POINT (-121.8952391 37.3485505)"
"PR0300599","GOMBEI JAPANESE RESTAURANT","193 JACKSON ST","SAN JOSE","CA","95112","37.3488138000","-121.8947410000","+14082794311","POINT (-121.894741 37.3488138)"
"PR0300600","KUMAKO","211 JACKSON ST","SAN JOSE","CA","95112","37.3492660000","-121.8941270000","+14082862111","POINT (-121.894127 37.349266)"
"PR0300602","KAITA RESTAURANT","215 JACKSON ST","SAN JOSE","CA","95112","37.3491707000","-121.8939706000","+14082875551","POINT (-121.8939706 37.3491707)"
"PR0300603","SHUEI DO","217 JACKSON ST","SAN JOSE","CA","95112","37.3492750000","-121.8940620000",,"POINT (-121.894062 37.349275)"
"PR0300604","B'ANNE BAKERY","224 JACKSON ST # 100","SAN JOSE","CA","95112","37.3490309000","-121.8937180000","+16692131224","POINT (-121.893718 37.3490309)"
"PR0300606","NIJIYA MARKET","240 JACKSON ST","SAN JOSE","CA","95112","37.3492280000","-121.8935070000","+14082756916","POINT (-121.893507 37.349228)"
"PR0300608","REED SCHOOL","1524 JACOB AV","SAN JOSE","CA","95124","37.2644990000","-121.8944800000",,"POINT (-121.89448 37.264499)"
"PR0300612","CARDENAS #203 - GROCERY","235 E JULIAN ST","SAN JOSE","CA","95112","37.3428774000","-121.8889989000","+14082923177","POINT (-121.8889989 37.3428774)"
"PR0300613","EL OAXAQUENO","451 E JULIAN ST","SAN JOSE","CA","95112","37.3451100000","-121.8845570000","+14082949388","POINT (-121.884557 37.34511)"
"PR0300614","NOAH'S MARKET","902 E JULIAN ST","SAN JOSE","CA","95112","37.3490880000","-121.8755950000","+16572544444","POINT (-121.875595 37.349088)"
"PR0300616","SHAN MARKET","1250 E JULIAN ST","SAN JOSE","CA","95116","37.3517490000","-121.8699150000","+14082973355","POINT (-121.869915 37.351749)"
"PR0300617","HUBBARD SCHOOL","1745 JUNE AV","SAN JOSE","CA","95122","37.3304170000","-121.8376860000",,"POINT (-121.837686 37.330417)"
"PR0300618","BIRDIES AT STANFORD GOLF","198 JUNIPERO SERRA BL","STANFORD","CA","94305","37.4220461000","-122.1832230000","+16508922406","POINT (-122.183223 37.4220461)"
"PR0300619","ST-CENTER FOR ADVANCED STUDY AT STA","75 ALTA RD","STANFORD","CA","94305","37.4201800000","-122.1799906000",,"POINT (-122.1799906 37.42018)"
"PR0300621","RENAISSANCE ACADEMY AT MATHSON","2050 KAMMERER AV","SAN JOSE","CA","95116","37.3512210000","-121.8433460000",,"POINT (-121.843346 37.351221)"
"PR0300622","BAR LA PALMA","262 KEYES ST","SAN JOSE","CA","95112","37.3222690000","-121.8722110000","+14082799635","POINT (-121.872211 37.322269)"
"PR0300623","TAPS KEYES CLUB","396 KEYES ST","SAN JOSE","CA","95112","37.3233260000","-121.8699510000","+14089982714","POINT (-121.869951 37.323326)"
"PR0300624","EL DORADO LIQUOR + MARKET","449 KEYES ST","SAN JOSE","CA","95112","37.3242470000","-121.8689680000","+14082349570","POINT (-121.868968 37.324247)"
"PR0300625","THIEN THANH MARKET","1080 S 10TH ST","SAN JOSE","CA","95112","37.3245250000","-121.8684980000","+14082951043","POINT (-121.868498 37.324525)"
"PR0300626","LE PAPILLON","410 SARATOGA AV","SAN JOSE","CA","95129","37.3198140000","-121.9722390000",,"POINT (-121.972239 37.319814)"
"PR0300627","7-ELEVEN, STORE 2234-14246E","497 KIELY BL","SAN JOSE","CA","95117","37.3200170000","-121.9693070000","+14089859294","POINT (-121.969307 37.320017)"
"PR0300630","MEL'S MINI MART","1500 KIELY BL","SANTA CLARA","CA","95051","37.3510790000","-121.9778120000","+14082492161","POINT (-121.977812 37.351079)"
"PR0300631","HACIENDA VALLEY SCIENCE MAGNET S","1290 KIMBERLY DR","SAN JOSE","CA","95118","37.2696330000","-121.8836420000",,"POINT (-121.883642 37.269633)"
"PR0300632","IMPERIO LIQUORS & TAQUERIA","203 S KING RD","SAN JOSE","CA","95116","37.3497220000","-121.8526850000","+14089266004","POINT (-121.852685 37.349722)"
"PR0300634","KING'S BURGER","980 S KING RD","SAN JOSE","CA","95116","37.3412320000","-121.8439060000","+14082512134","POINT (-121.843906 37.341232)"
"PR0300636","KENTUCKY FRIED CHICKEN-2415","2415 S KING RD","SAN JOSE","CA","95122","37.3223813000","-121.8259337000",,"POINT (-121.8259337 37.3223813)"
"PR0300637","7-ELEVEN #14253D","2577 S KING RD","SAN JOSE","CA","95122","37.3194460000","-121.8233170000","+14082741666","POINT (-121.823317 37.319446)"
"PR0300639","SCHALLENBERGER ELEMENTARY","1280 KOCH LN","SAN JOSE","CA","95125","37.2805310000","-121.8882210000",,"POINT (-121.888221 37.280531)"
"PR0300640","SANDWICH MILL, THE","1381 KOOSER RD","SAN JOSE","CA","95118","37.2462042000","-121.8891299000","+14082667815","POINT (-121.8891299 37.2462042)"
"PR0300641","7-ELEVEN FOOD STORE #14255","1413 KOOSER RD","SAN JOSE","CA","95118","37.2462810000","-121.8906200000",,"POINT (-121.89062 37.246281)"
"PR0300642","UNION MIDDLE SCHOOL","2130 LOS GATOS-ALMADEN RD","SAN JOSE","CA","95124","37.2432410000","-121.9344000000",,"POINT (-121.9344 37.243241)"
"PR0300643","KATSUYAKI","1992 LAFAYETTE ST","SANTA CLARA","CA","95050","37.3601930000","-121.9481103000","+14089881411","POINT (-121.9481103 37.360193)"
"PR0300644","DELI-CIOSO","2015 LAFAYETTE ST","SANTA CLARA","CA","95050","37.3607472000","-121.9479998000","+14082056154","POINT (-121.9479998 37.3607472)"
"PR0300645","7-ELEVEN STORE 2234-14243C","3777 LAFAYETTE ST 316","SANTA CLARA","CA","95054","37.3876240000","-121.9535670000",,"POINT (-121.953567 37.387624)"
"PR0300649","LAKEWOOD ELEMENTARY SCHOOL","750 LAKECHIME AV","SUNNYVALE","CA","94086","37.3982230000","-122.0034520000",,"POINT (-122.003452 37.398223)"
"PR0300650","DENNY'S RESTAURANT #9519","2401 LANAI AV","SAN JOSE","CA","95122","37.3210201000","-121.8295926000","+14082741922","POINT (-121.8295926 37.3210201)"
"PR0300651","MCDONALD'S RESTAURANT #7534","1795 LANDESS AV","MILPITAS","CA","95035","37.4175338000","-121.8713407000",,"POINT (-121.8713407 37.4175338)"
"PR0300652","7-ELEVEN FOOD STORE #14324","1905 LATHAM ST","MOUNTAIN VIEW","CA","94040","37.3945380000","-122.0963680000","+16509653762","POINT (-122.096368 37.394538)"
"PR0300653","LATIMER ELEMENTARY SCHOOL","4250 LATIMER AV","SAN JOSE","CA","95130","37.2922510000","-121.9794140000",,"POINT (-121.979414 37.292251)"
"PR0300654","BILTMORE HOTEL- ZIN","2151 LAURELWOOD RD","SANTA CLARA","CA","95054","37.3838760000","-121.9615930000","+14083464701","POINT (-121.961593 37.383876)"
"PR0300657","HOMI JAPANESE RAMEN","1133 LAWRENCE EX","SUNNYVALE","CA","94089","37.3971720000","-121.9970943999","+14087520933","POINT (-121.9970943999 37.397172)"
"PR0300658","NEW WING YUAN MARKET","1139 LAWRENCE EX","SUNNYVALE","CA","94089","37.3973530000","-121.9960230000","+14084009288","POINT (-121.996023 37.397353)"
"PR0300661","LEIGH HIGH SCHOOL","5210 LEIGH AV","LOS GATOS","CA","95124","37.2432900000","-121.9224820000",,"POINT (-121.922482 37.24329)"
"PR0300662","OSTER ELEMENTARY SCHOOL","1855 LENCAR WY","SAN JOSE","CA","95124","37.2556210000","-121.9193900000",,"POINT (-121.91939 37.255621)"
"PR0300663","WAGON WHEEL BBQ","861 LEONG DR","MOUNTAIN VIEW","CA","94043","37.4060070000","-122.0651090000","+16509880400","POINT (-122.065109 37.406007)"
"PR0300664","MI TIERRA - TAQUERIA","889 LEONG DR","MOUNTAIN VIEW","CA","94043","37.4060985000","-122.0657216000","+19259995916","POINT (-122.0657216 37.4060985)"
"PR0300666","LA FLOR DE JALISCO - TAQUERIA","144 LEWIS ST","GILROY","CA","95020","37.0099190000","-121.5683970000","+14088488371","POINT (-121.568397 37.009919)"
"PR0300668","STARBIRD CHICKEN","1241 W EL CAMINO REAL","SUNNYVALE","CA","94086","37.3746289000","-122.0571039999","+16509886630","POINT (-122.0571039999 37.3746289)"
"PR0300669","PUERTO AZUL","1072 LINCOLN AV","SAN JOSE","CA","95125","37.3101690000","-121.9017100000","+14082924866","POINT (-121.90171 37.310169)"
"PR0300670","JAKE'S","1074 LINCOLN AV F&G","SAN JOSE","CA","95125","37.3098529000","-121.9014990000","+14082877960","POINT (-121.901499 37.3098529)"
"PR0300672","ROUND TABLE PIZZA #16","1175 LINCOLN AV","SAN JOSE","CA","95125","37.3069870000","-121.9005340000","+14082655128","POINT (-121.900534 37.306987)"
"PR0300673","SUSHI ARASHI","1181 LINCOLN AV","SAN JOSE","CA","95125","37.3070322000","-121.9000828000","+14088586669","POINT (-121.9000828 37.3070322)"
"PR0300674","HAJIS RESTAURANT","1185 LINCOLN AV","SAN JOSE","CA","95125","37.3069570000","-121.9000287000","+14082048505","POINT (-121.9000287 37.306957)"
"PR0300675","JOHN'S OF WILLOW GLEN","1238 LINCOLN AV","SAN JOSE","CA","95125","37.3060153000","-121.8993067000","+14089981440","POINT (-121.8993067 37.3060153)"
"PR0300676","LIUS TAIWAN RESTAURANT","1306 LINCOLN AV","SAN JOSE","CA","95125","37.3048534000","-121.8983918000","+14082898800","POINT (-121.8983918 37.3048534)"
"PR0300677","BERTUCELLI LA VILLA GOURMET & DE","1319 LINCOLN AV","SAN JOSE","CA","95125","37.3045840000","-121.8985270000",,"POINT (-121.898527 37.304584)"
"PR0300679","LINCOLN AVE LIQUORS","2049 LINCOLN AV","SAN JOSE","CA","95125","37.2934790000","-121.8902600000","+14082671237","POINT (-121.89026 37.293479)"
"PR0300680","RICORIA RESTAURANT","2281 LINCOLN AV","SAN JOSE","CA","95125","37.2889995000","-121.8871218000","+14082657066","POINT (-121.8871218 37.2889995)"
"PR0300681","FOOTHILL ELEMENTARY SCHOOL","13919 LYNDE LN","SARATOGA","CA","95070","37.2652370000","-122.0333950000",,"POINT (-122.033395 37.265237)"
"PR0300683","SWEET SHOP","994 LOS ALTOS AV","LOS ALTOS","CA","94022","37.4003033000","-122.1217440000","+16509417467","POINT (-122.121744 37.4003033)"
"PR0300684","LOS ARBOLES SCHOOL","455 LOS ARBOLES","SAN JOSE","CA","95111","37.2857520000","-121.8307560000",,"POINT (-121.830756 37.285752)"
"PR0300685","C W HAMAN SCHOOL","865 LOS PADRES BL","SANTA CLARA","CA","95050","37.3435030000","-121.9646130000",,"POINT (-121.964613 37.343503)"
"PR0300686","7-ELEVEN #14236C","1555 LOS PADRES BL","SANTA CLARA","CA","95050","37.3518090000","-121.9647740000","+14085541432","POINT (-121.964774 37.351809)"
"PR0300688","ROBERT F KENNEDY ELEM SCHOOL","1602 LUCRETIA AV","SAN JOSE","CA","95122","37.3246490000","-121.8517820000",,"POINT (-121.851782 37.324649)"
"PR0300689","SAMUEL STIPE SCHOOL","5000 LYNG DR","SAN JOSE","CA","95111","37.2713200000","-121.8064660000",,"POINT (-121.806466 37.27132)"
"PR0300690","GARRETT'S BAR & GRILL","605 MACARA AV","SUNNYVALE","CA","94085","37.3961110000","-122.0420580000","+16692805400","POINT (-122.042058 37.396111)"
"PR0300692","WINGSTOP RESTAURANT # 2428","812 S WINCHESTER BL # 110","SAN JOSE","CA","95128","37.3127730000","-121.9499040000",,"POINT (-121.949904 37.312773)"
"PR0300693","ITALIAN DELI","139 MAIN ST","LOS ALTOS","CA","94022","37.3797669000","-122.1148712000","+16509486745","POINT (-122.1148712 37.3797669)"
"PR0300695","CASA LUPE MEXICAN RESTAURANT","185 MAIN ST","LOS ALTOS","CA","94022","37.3789575000","-122.1154834000","+16509417390","POINT (-122.1154834 37.3789575)"
"PR0300698","7-ELEVEN FOOD STORE#14211B","280 E MAIN ST","LOS GATOS","CA","95032","37.2209460000","-121.9751260000","+14083548280","POINT (-121.975126 37.220946)"
"PR0300699","KENTUCKY FRIED CHICKEN-73","73 S MAIN ST","MILPITAS","CA","95035","37.4296030000","-121.9069610000",,"POINT (-121.906961 37.429603)"
"PR0300701","THE G","134 S MAIN ST 1","MILPITAS","CA","95035","37.4286880000","-121.9063358000","+14082621123","POINT (-121.9063358 37.428688)"
"PR0300702","KATHMANDU CUISINE","138 S MAIN ST","MILPITAS","CA","95035","37.4286431000","-121.9063248000","+14086493616","POINT (-121.9063248 37.4286431)"
"PR0300704","MILPITAS LIQUOR","190 S MAIN ST","MILPITAS","CA","95035","37.4278330000","-121.9059440000","+14082621693","POINT (-121.905944 37.427833)"
"PR0300706","TAQUERIA LAS VEGAS","1417 N MILPITAS BL","MILPITAS","CA","95035","37.4509770000","-121.9105250000","+14082622415","POINT (-121.910525 37.450977)"
"PR0300709","PAUL'S QUIK STOP #2","215 W MAIN","MORGAN HILL","CA","95037","37.1281670000","-121.6587100000","+14087793332","POINT (-121.65871 37.128167)"
"PR0300710","LOMBARDO'S DONUTS","219 W MAIN AV","MORGAN HILL","CA","95037","37.1285710000","-121.6589800000","+14087799792","POINT (-121.65898 37.128571)"
"PR0300711","REGION MARKET","225 W MAIN AV","MORGAN HILL","CA","95037","37.1280890000","-121.6588500000","+14087792156","POINT (-121.65885 37.128089)"
"PR0300713","SUNNYVALE JR HIGH SCHOOL","1080 MANGO AV","SUNNYVALE","CA","94086","37.3603720000","-122.0538550000",,"POINT (-122.053855 37.360372)"
"PR0300714","MARSHALL LANE ELEMENTARY SCHOOL","14114 MARILYN LN","SARATOGA","CA","95070","37.2637500000","-121.9964320000",,"POINT (-121.996432 37.26375)"
"PR0300716","Taco Bell - 35133","19 N MARKET ST","SAN JOSE","CA","95113","37.3357340000","-121.8926110000","+16503129934","POINT (-121.892611 37.335734)"
"PR0300718","7-ELEVEN FOOD STORE #14254","3497 MARTEN AV","SAN JOSE","CA","95127","37.3504880000","-121.7974340000","+19728286586","POINT (-121.797434 37.350488)"
"PR0300720","HOPPY'S FOOD MART","625 S MARY AV","SUNNYVALE","CA","94087","37.3714670000","-122.0487700000","+14087332436","POINT (-122.04877 37.371467)"
"PR0300724","NEW INDIA BAZAR","1338 S MARY AV","SUNNYVALE","CA","94087","37.3504990000","-122.0503730000","+14085309555","POINT (-122.050373 37.350499)"
"PR0300725","THE GURKHA KITCHEN","1342 S MARY AV","SUNNYVALE","CA","94087","37.3503182000","-122.0504927000",,"POINT (-122.0504927 37.3503182)"
"PR0300726","ZANOTTO'S SUNNYVALE MARKET - GROCERY","1356 S MARY AV","SUNNYVALE","CA","94087","37.3499617000","-122.0504981000","+14082174928","POINT (-122.0504981 37.3499617)"
"PR0300727","KEKE'S BREAKFAST CAFE","311 S MATHILDA AV","SUNNYVALE","CA","94086","37.3748780000","-122.0356720000","+14085141136","POINT (-122.035672 37.374878)"
"PR0300728","KAL'S BBQ","425 N MATHILDA AV","SUNNYVALE","CA","94085","37.3871404000","-122.0314696000","+14087395271","POINT (-122.0314696 37.3871404)"
"PR0300730","ST MARYS SCHOOL","30 LYNDON AV","LOS GATOS","CA","95030","37.2233310000","-121.9849700000",,"POINT (-121.98497 37.223331)"
"PR0300731","HILLBROOK SCHOOL","300 MARCHMONT DR","LOS GATOS","CA","95032","37.2275770000","-121.9548300000","+14083566116","POINT (-121.95483 37.227577)"
"PR0300732","FALAFEL FLARE","470 N MATHILDA AV","SUNNYVALE","CA","94086","37.3863566000","-122.0312303000","+14086852141","POINT (-122.0312303 37.3863566)"
"PR0300733","LUCKY #780-GROCERY","484 N MATHILDA AV","SUNNYVALE","CA","94086","37.3885300000","-122.0292080000","+14087371834","POINT (-122.029208 37.38853)"
"PR0300734","Taco Bell - 41078","485 N MATHILDA AV","SUNNYVALE","CA","94085","37.3894720000","-122.0313370000","+16692411910","POINT (-122.031337 37.389472)"
"PR0300735","JOY WOK","494 N MATHILDA AV","SUNNYVALE","CA","94085","37.3863712000","-122.0312254000","+14086852827","POINT (-122.0312254 37.3863712)"
"PR0300736","DISH N' DASH","736 N MATHILDA AV","SUNNYVALE","CA","94085","37.3943120000","-122.0286150000","+14085309200","POINT (-122.028615 37.394312)"
"PR0300738","KURATED KITCHENS","155 E MAUDE AV","SUNNYVALE","CA","94085","37.3880730000","-122.0252790000","+16503801613","POINT (-122.025279 37.388073)"
"PR0300739","KENTUCKY FRIED CHICKEN","340 W MAUDE AV","SUNNYVALE","CA","94086","37.3886290000","-122.0295830000",,"POINT (-122.029583 37.388629)"
"PR0300740","SAVE N GO MARKET","343 E MAUDE AV","SUNNYVALE","CA","94086","37.3873830000","-122.0231110000","+14087363711","POINT (-122.023111 37.387383)"
"PR0300742","PRESTIGE LIQUORS","490 N MATHILDA AV","SUNNYVALE","CA","94086","37.3890380000","-122.0303840000","+14087320201","POINT (-122.030384 37.389038)"
"PR0300743","LINCOLN SCHOOL","21710 MC CLELLAN RD","CUPERTINO","CA","95014","37.3153810000","-122.0540260000",,"POINT (-122.054026 37.315381)"
"PR0300744","MONTA VISTA HIGH SCHOOL","21840 MC CLELLAN RD","CUPERTINO","CA","95014","37.3154190000","-122.0564430000","+14085222256","POINT (-122.056443 37.315419)"
"PR0300745","DEEP CLIFF GOLF COURSE-SNACK BAR","10700 CLUB HOUSE LN","CUPERTINO","CA","95014","37.3120010000","-122.0660660000",,"POINT (-122.066066 37.312001)"
"PR0300746","FOREST HILL SCHOOL","4450 MC COY AV","CAMPBELL","CA","95008","37.2762660000","-121.9822330000",,"POINT (-121.982233 37.276266)"
"PR0300747","TAK FOOD & LIQUOR","1091 MC CREERY AV ST.40","SAN JOSE","CA","95116","37.3421980000","-121.8409120000","+14082517363","POINT (-121.840912 37.342198)"
"PR0300748","THOMAS RYAN SCHOOL","1241 MC GINNES AV","SAN JOSE","CA","95127","37.3686430000","-121.8212380000",,"POINT (-121.821238 37.368643)"
"PR0300749","LUCKY 7 SUPERMARKET","1625 MCKEE RD","SAN JOSE","CA","95116","37.3565130000","-121.8633040000","+14082510354","POINT (-121.863304 37.356513)"
"PR0300750","WALGREENS #05454","1661 MCKEE RD","SAN JOSE","CA","951161236","37.3576200000","-121.8616710000","+14083471038","POINT (-121.861671 37.35762)"
"PR0300751","COUNTRYSIDE LIQUORS","1711 MCKEE RD # F","SAN JOSE","CA","95116","37.3585430000","-121.8602940000","+14085929987","POINT (-121.860294 37.358543)"
"PR0300753","7-ELEVEN FOOD STORE #2367-14276E","1711 MCKEE RD # J","SAN JOSE","CA","95116","37.3585430000","-121.8602940000","+14082590274","POINT (-121.860294 37.358543)"
"PR0300754","TACOS EL RANCHERITO #2","1729 MCKEE RD","SAN JOSE","CA","95116","37.3588090000","-121.8602580000","+14082512563","POINT (-121.860258 37.358809)"
"PR0300755","MCKEE SEAFOOD SUPERMARKET","2331 MCKEE RD","SAN JOSE","CA","95116","37.3657800000","-121.8495970000","+14082515566","POINT (-121.849597 37.36578)"
"PR0300756","MCKEE ROUND TABLE","2351 MCKEE RD","SAN JOSE","CA","95116","37.3677310000","-121.8492350000","+14082593940","POINT (-121.849235 37.367731)"
"PR0300758","EL CERRITO TAQUERIA AND CENADURIA","3110 MCKEE RD","SAN JOSE","CA","95127","37.3751034000","-121.8351476000","+14082585292","POINT (-121.8351476 37.3751034)"
"PR0300759","ECONO LIQUORS","3112 MCKEE RD","SAN JOSE","CA","95127","37.3751410000","-121.8352900000","+14082727677","POINT (-121.83529 37.375141)"
"PR0300760","HAPPI HOUSE TERIYAKI","3015 MCKEE RD","SAN JOSE","CA","95127","37.3738898000","-121.8375545000","+14089232120","POINT (-121.8375545 37.3738898)"
"PR0300761","COUNTRY CLUB LIQUORS","3473 MCKEE RD","SAN JOSE","CA","95127","37.3813480000","-121.8285359000","+14082518691","POINT (-121.8285359 37.381348)"
"PR0300762","LUCKY #233 - GROCERY","3457 MCKEE RD","SAN JOSE","CA","95127","37.3810760000","-121.8295350000",,"POINT (-121.829535 37.381076)"
"PR0300764","LA PLAZA MARKET GROCERY","515 MCLAUGHLIN AV","SAN JOSE","CA","95116","37.3404150000","-121.8614870000","+14089479438","POINT (-121.861487 37.340415)"
"PR0300765","JB LIQUOR","1096 MCLAUGHLIN AV","SAN JOSE","CA","95122","37.3331690000","-121.8538510000","+14089983479","POINT (-121.853851 37.333169)"
"PR0300766","7-ELEVEN STORE # 2367 - 14256C","1173 MCLAUGHLIN AV","SAN JOSE","CA","95122","37.3319300000","-121.8530620000","+14082790243","POINT (-121.853062 37.33193)"
"PR0300767","JANE LATHROP STANFORD MIDDLE SCHOOL","480 E MEADOW DR","PALO ALTO","CA","94306","37.4221480000","-122.1183170000","+16508334261","POINT (-122.118317 37.422148)"
"PR0300768","TOMMY ASIA","916 MERIDIAN AV","SAN JOSE","CA","95126","37.3098180000","-121.9132640000",,"POINT (-121.913264 37.309818)"
"PR0300771","ROOKIES SPORTS LODGE","1535 MERIDIAN AV STE 10","SAN JOSE","CA","95125","37.2964866000","-121.9135820000","+14084452121","POINT (-121.913582 37.2964866)"
"PR0300772","THREE FLAMES RESTAURANT","1547 MERIDIAN AV B","SAN JOSE","CA","95126","37.2963370000","-121.9135795000","+14082693133","POINT (-121.9135795 37.296337)"
"PR0300773","VUCKO'S LIQUOR & GROCERY","1585 MERIDIAN AV","SAN JOSE","CA","95125","37.2948043000","-121.9146430000","+14087237324","POINT (-121.914643 37.2948043)"
"PR0300775","EL DORADO TAQUERIA","1594 MERIDIAN AV","SAN JOSE","CA","95125","37.2952481000","-121.9135130000",,"POINT (-121.913513 37.2952481)"
"PR0300786","FRED'S PLACE","2534 OLD MIDDLEFIELD WY","MOUNTAIN VIEW","CA","94043","37.4149644000","-122.1001151000",,"POINT (-122.1001151 37.4149644)"
"PR0300789","WALGREENS #06869","2605 MIDDLEFIELD RD","PALO ALTO","CA","94303","37.4343380000","-122.1305730000","+16505669720","POINT (-122.130573 37.434338)"
"PR0300790","BASKIN ROBBINS ICE CREAM","2615 MIDDLEFIELD RD","PALO ALTO","CA","94306","37.4340785000","-122.1303641000","+16503271636","POINT (-122.1303641 37.4340785)"
"PR0300791","SAFEWAY #1682","2811 MIDDLEFIELD RD","PALO ALTO","CA","94303","37.4155627000","-122.1020559000",,"POINT (-122.1020559 37.4155627)"
"PR0300793","PIAZZA'S FINE FOODS GROCERY","3922 MIDDLEFIELD RD","PALO ALTO","CA","94303","37.4195787000","-122.1097939000",,"POINT (-122.1097939 37.4195787)"
"PR0300794","RICK'S AND PINTS OF JOY","3946 MIDDLEFIELD RD","PALO ALTO","CA","94303","37.4185570000","-122.1092850000","+14082421115","POINT (-122.109285 37.418557)"
"PR0300795","GREEN ELEPHANT GOURMET","3950 MIDDLEFIELD RD","PALO ALTO","CA","94303","37.4193730000","-122.1095736000","+16504947391","POINT (-122.1095736 37.419373)"
"PR0300796","CUPERTINO HIGH SCHOOL","10100 FINCH AV","CUPERTINO","CA","95014","37.3217220000","-122.0103890000","+14083667300","POINT (-122.010389 37.321722)"
"PR0300797","DANIEL LAIRON COLLEGE PREPARATORY ACADEMY","3975 MIRA LOMA WY","SAN JOSE","CA","95111","37.2821030000","-121.8290460000",,"POINT (-121.829046 37.282103)"
"PR0300808","ADRIAN C WILCOX HIGH SCHOOL","3250 MONROE ST","SANTA CLARA","CA","95051","37.3667710000","-121.9857090000",,"POINT (-121.985709 37.366771)"
"PR0300810","THIRSTY BAR","1031 MONROE ST","SANTA CLARA","CA","95050","37.3489510000","-121.9479790000","+14089857201","POINT (-121.947979 37.348951)"
"PR0300811","MONROE SCHOOL","1055 S MONROE ST","SAN JOSE","CA","95128","37.3086950000","-121.9436180000",,"POINT (-121.943618 37.308695)"
"PR0300813","7-ELEVEN FOOD STORE #14212B","3580 MONROE ST","SANTA CLARA","CA","95051","37.3666810000","-121.9949480000","+18186207182","POINT (-121.994948 37.366681)"
"PR0300815","MR HONG","16745 MONTEREY RD","MORGAN HILL","CA","95037","37.1219540000","-121.6480749000","+14087767311","POINT (-121.6480749 37.121954)"
"PR0300818","CAFE MOTIF","7397 MONTEREY RD","GILROY","CA","95020","37.0066040000","-121.5687610000","+14082060018","POINT (-121.568761 37.006604)"
"PR0300819","BARTENDERS UNION","7421 MONTEREY ST","GILROY","CA","95020","37.0070560000","-121.5692150000","+18316828851","POINT (-121.569215 37.007056)"
"PR0300821","GILROY BOWL","7554 MONTEREY ST","GILROY","CA","95020","37.0090000000","-121.5691760000","+14082090343","POINT (-121.569176 37.009)"
"PR0300822","EL CHARRITO MARKET","7638 MONTEREY ST","GILROY","CA","95020","37.0105980000","-121.5702150000","+14088423659","POINT (-121.570215 37.010598)"
"PR0300825","JACK IN THE BOX #478","7895 MONTEREY ST","GILROY","CA","95020","37.0143560000","-121.5725640000","+14088482395","POINT (-121.572564 37.014356)"
"PR0300826","LONG HOUSE, THE","8195 MONTEREY ST","GILROY","CA","95020","37.0169039000","-121.5747950000",,"POINT (-121.574795 37.0169039)"
"PR0300828","LA COSTA TAQUERIA","16290 MONTEREY RD","MORGAN HILL","CA","95037","37.1166991000","-121.6450885000","+14087791511","POINT (-121.6450885 37.1166991)"
"PR0300829","SHIVA GLOBAL PARTNERSHIP COUNTRY STORE","16390 MONTEREY ST","MORGAN HILL","CA","95037","37.1180240000","-121.6456680000","+14088430711","POINT (-121.645668 37.118024)"
"PR0300830","PHO SAIGON CORNER","16760 MONTEREY RD","MORGAN HILL","CA","95037","37.1212883000","-121.6476683000","+14087760986","POINT (-121.6476683 37.1212883)"
"PR0300834","M & H TAVERN","17365 MONTEREY RD","MORGAN HILL","CA","95037","37.1284999000","-121.6529556000","+14087799082","POINT (-121.6529556 37.1284999)"
"PR0300835","SINALOA CAFE","17535 MONTEREY RD","MORGAN HILL","CA","95037","37.1296925000","-121.6543069000","+14087799740","POINT (-121.6543069 37.1296925)"
"PR0300836","TOLENTINO TAQUERIA","17735 MONTEREY RD","MORGAN HILL","CA","95037","37.1330278000","-121.6568517000","+18312690292","POINT (-121.6568517 37.1330278)"
"PR0300837","MADRONE MARKET","19120 MONTEREY RD","MORGAN HILL","CA","95037","37.1503299000","-121.6709609000","+14086124051","POINT (-121.6709609 37.1503299)"
"PR0300840","JUST BREAKFAST","2901 MONTEREY HY","SAN JOSE","CA","95111","37.2906770000","-121.8488990000","+14082257631","POINT (-121.848899 37.290677)"
"PR0300842","JESS'S PLACE","3088 MONTEREY RD","SAN JOSE","CA","95111","37.2877787000","-121.8452228000","+14082253080","POINT (-121.8452228 37.2877787)"
"PR0300843","TACOS Y MARISCOS COSTA ALEGRE 2 INC.","3060 MONTEREY HY","SAN JOSE","CA","95111","37.2880945000","-121.8452525999","+16504352085","POINT (-121.8452525999 37.2880945)"
"PR0300844","DRINKS DEPOT","3100 MONTEREY RD","SAN JOSE","CA","95111","37.2874280000","-121.8446990000","+14082278841","POINT (-121.844699 37.287428)"
"PR0300845","NEW SOUTHERN KITCHEN RESTAURANT","3848 MONTEREY RD","SAN JOSE","CA","95111","37.2818286000","-121.8389644000","+14089813433","POINT (-121.8389644 37.2818286)"
"PR0300846","G6","3860 MONTEREY ST","SAN JOSE","CA","95111","37.2816713000","-121.8388008000","+16698886006","POINT (-121.8388008 37.2816713)"
"PR0300849","LA COSTA","4152 MONTEREY RD","SAN JOSE","CA","95129","37.2779620000","-121.8350419000","+14082243339","POINT (-121.8350419 37.277962)"
"PR0300850","MARINA GROCERY","4148 MONTEREY RD","SAN JOSE","CA","95111","37.2782110000","-121.8351070000",,"POINT (-121.835107 37.278211)"
"PR0300853","EDENVALE LIQUORS","5272 MONTEREY RD B","SAN JOSE","CA","95111","37.2603574000","-121.8100080000","+14082254844","POINT (-121.810008 37.2603574)"
"PR0300854","LOS GONZALEZ ICE CREAM","5278 MONTEREY RD # 30","SAN JOSE","CA","95111","37.2599040000","-121.8090370000","+14088991453","POINT (-121.809037 37.259904)"
"PR0300856","ROCCA'S MARKET","13335 MONTEREY RD","SAN MARTIN","CA","95046","37.0856320000","-121.6107820000","+14086832330","POINT (-121.610782 37.085632)"
"PR0300858","SAN MARTIN CAFE","13475 MONTEREY HY","SAN MARTIN","CA","95046","37.0999311000","-121.6229274000","+14086860279","POINT (-121.6229274 37.0999311)"
"PR0300864","CURRY LIFE","4320 MOORPARK AV","SAN JOSE","CA","95129","37.3154773000","-121.9783117000","+14087868355","POINT (-121.9783117 37.3154773)"
"PR0300865","REDI ROOM","4340 MOORPARK AV","SAN JOSE","CA","95129","37.3155366000","-121.9782139000","+14082577770","POINT (-121.9782139 37.3155366)"
"PR0300866","FUGETSU SAN JOSE","4342 MOORPARK AV # 20","SAN JOSE","CA","95129","37.3156752000","-121.9783165999",,"POINT (-121.9783165999 37.3156752)"
"PR0300867","GAKU","5152 MOORPARK AV 40","SAN JOSE","CA","95129","37.3093780000","-121.9936180000","+14082576738","POINT (-121.993618 37.309378)"
"PR0300870","THE RAINBOW JUNCTION","47300 MINES RD","LIVERMORE","CA","94550","37.3923534000","-121.4896895000","+151007357304","POINT (-121.4896895 37.3923534)"
"PR0300871","THAI BASIL BAR & RESTAURANT","101 S MURPHY AV","SUNNYVALE","CA","94086","37.3776200000","-122.0298918000","+14087731098","POINT (-122.0298918 37.37762)"
"PR0300872","PAUL & HARVEY'S","130 S MURPHY AV","SUNNYVALE","CA","94086","37.3770330000","-122.0297340000",,"POINT (-122.029734 37.377033)"
"PR0300873","ZAREENS RESTAURANT - SUNNYVALE","135 S MURPHY AV","SUNNYVALE","CA","94086","37.3771050000","-122.0303970000","+15106739587","POINT (-122.030397 37.377105)"
"PR0300874","ROBERTO'S CANTINA","168 S MURPHY AV","SUNNYVALE","CA","94086","37.3765165000","-122.0298043999","+14087392021","POINT (-122.0298043999 37.3765165)"
"PR0300875","TAO TAO CAFE","175 S MURPHY AV","SUNNYVALE","CA","94086","37.3764309000","-122.0306230000",,"POINT (-122.030623 37.3764309)"
"PR0300876","DUMPLING DEPOT","562 S MURPHY AV","SUNNYVALE","CA","94086","37.3694620000","-122.0322380000","+14086852979","POINT (-122.032238 37.369462)"
"PR0300877","IDA PRICE INTERMEDIATE SCHOOL","2650 NEW JERSEY AV","SAN JOSE","CA","95124","37.2732280000","-121.9266080000",,"POINT (-121.926608 37.273228)"
"PR0300878","CHARLES FANMATRE SCHOOL","2800 NEW JERSEY AV","SAN JOSE","CA","95124","37.2709550000","-121.9257100000",,"POINT (-121.92571 37.270955)"
"PR0300880","ACHILLES","2521 NEWHALL ST","SANTA CLARA","CA","95050","37.3376568000","-121.9507616999","+14089842204","POINT (-121.9507616999 37.3376568)"
"PR0300881","ONE STOP MARKET","2561 NEWHALL ST","SANTA CLARA","CA","95050","37.3375970000","-121.9509700000","+15596688314","POINT (-121.95097 37.337597)"
"PR0300882","SJSU STUDENT UNION - MAIN KITCHEN","390 S 8TH ST","SAN JOSE","CA","95112","37.3354526000","-121.8784589000","+14083321320","POINT (-121.8784589 37.3354526)"
"PR0300883","SJSU STUDENT UNION - ROOTED","390 S 8TH ST","SAN JOSE","CA","95112","37.3354526000","-121.8784589000","+14083321320","POINT (-121.8784589 37.3354526)"
"PR0300884","SAINT PATRICK'S SCHOOL","51 N 9TH ST","SAN JOSE","CA","95112","37.3408990000","-121.8828240000","+14082835858","POINT (-121.882824 37.340899)"
"PR0300885","LYNDALE SCHOOL","13901 NORDYKE DR","SAN JOSE","CA","95127","37.3600300000","-121.8244520000",,"POINT (-121.824452 37.36003)"
"PR0300887","WASHINGTON ELEMENTARY SCHOOL","100 OAK ST","SAN JOSE","CA","95110","37.3216900000","-121.8817740000",,"POINT (-121.881774 37.32169)"
"PR0300890","LAS ISLITAS","1460 OAKLAND RD F","SAN JOSE","CA","95112","37.3744310000","-121.8940730000","+14084527411","POINT (-121.894073 37.374431)"
"PR0300891","EASY MART II","1460 OAKLAND RD A","SAN JOSE","CA","95112","37.3742280000","-121.8943740000","+14084530655","POINT (-121.894374 37.374228)"
"PR0300892","SAN JOSE MUNICIPAL GOLF COURSE","1560 OAKLAND RD","SAN JOSE","CA","95131","37.3766500000","-121.8902060000","+14083470990","POINT (-121.890206 37.37665)"
"PR0300894","7-ELEVEN FOOD STORE #2214-14321B","1951 OLD MIDDLEFIELD WY","MOUNTAIN VIEW","CA","94043","37.4142200000","-122.0899770000","+16509615913","POINT (-122.089977 37.41422)"
"PR0300896","7-ELEVEN STORE 2367-14219","615 OLD SAN FRANCISCO RD","SUNNYVALE","CA","94086","37.3673430000","-122.0224690000","+14087359080","POINT (-122.022469 37.367343)"
"PR0300899","SAKAMOTO SCHOOL","6280 SHADELANDS DR","SAN JOSE","CA","95123","37.2312360000","-121.8389570000",,"POINT (-121.838957 37.231236)"
"PR0300904","ROLLING HILLS SCHOOL","1585 MORE AV","LOS GATOS","CA","95032","37.2649160000","-121.9859580000",,"POINT (-121.985958 37.264916)"
"PR0300905","OLD GILROY SERVICE","2035 PACHECO PASS HY","GILROY","CA","95020","36.9996920000","-121.5264850000",,"POINT (-121.526485 36.999692)"
"PR0300906","CASA DE FRUTA - FRUITSTAND","9810 PACHECO PASS HY A","HOLLISTER","CA","95023","36.9897440000","-121.3820400000",,"POINT (-121.38204 36.989744)"
"PR0300907","CASA DE RESTAURANT","9820 PACHECO PASS HY","HOLLISTER","CA","95023","37.0384710000","-121.3003225000",,"POINT (-121.3003225 37.038471)"
"PR0300908","CASA DE WINE AND DELI","9840 PACHECO PASS HY","HOLLISTER","CA","95023","36.9897810000","-121.3820160000",,"POINT (-121.382016 36.989781)"
"PR0300910","TONY P'S BAR & GRILL","956 PARK AV","SAN JOSE","CA","95126","37.3259600000","-121.9081550000","+14089477777","POINT (-121.908155 37.32596)"
"PR0300911","PARK & HESTER MARKET","1451 PARK AV","SAN JOSE","CA","95126","37.3298450000","-121.9191190000","+14082975083","POINT (-121.919119 37.329845)"
"PR0300912","HERBERT HOOVER JR HIGH SCHOOL","1635 PARK AV","SAN JOSE","CA","95126","37.3323390000","-121.9223550000","+14085356274","POINT (-121.922355 37.332339)"
"PR0300914","VICTORIA LIQUORS","22 S PARK VICTORIA DR","MILPITAS","CA","95035","37.4352800000","-121.8840470000","+14082625266","POINT (-121.884047 37.43528)"
"PR0300915","7-ELEVEN #2366-14242D","57 S PARK VICTORIA DR","MILPITAS","CA","95035","37.4344630000","-121.8841080000","+14082622965","POINT (-121.884108 37.434463)"
"PR0300916","KING CHICKEN WING","77 S PARK VICTORIA DR","MILPITAS","CA","95035","37.4339155000","-121.8837366000","+14082628730","POINT (-121.8837366 37.4339155)"
"PR0300917","OMEGA RESTAURANT","90 S PARK VICTORIA DR","MILPITAS","CA","95035","37.4336204000","-121.8835944000","+14089468748","POINT (-121.8835944 37.4336204)"
"PR0300918","LOS JEFE'S TAQUERIA","1350 S PARK VICTORIA DR # 43","MILPITAS","CA","95035","37.4175500000","-121.8737840000","+14089219196","POINT (-121.873784 37.41755)"
"PR0300919","APNI MANDI FARMERS MARKET","1350 S PARK VICTORIA DR # 1","MILPITAS","CA","95035","37.4175500000","-121.8737840000","+15108615301","POINT (-121.873784 37.41755)"
"PR0300920","PARKTOWN PIZZA COMPANY","1350 S PARK VICTORIA DR 46","MILPITAS","CA","95035","37.4175500000","-121.8737840000","+14082632131","POINT (-121.873784 37.41755)"
"PR0300922","QUICKLY","1350 S PARK VICTORIA DR STE 30","MILPITAS","CA","95035","37.4175500000","-121.8737840000","+14089341521","POINT (-121.873784 37.41755)"
"PR0300923","7-ELEVEN STORE #2367-14218A","3111 PAYNE AV","SAN JOSE","CA","95117","37.3015930000","-121.9501470000","+14083760773","POINT (-121.950147 37.301593)"
"PR0300924","CASTLEMONT ELEMENTARY SCHOOL","3040 PAYNE AV","CAMPBELL","CA","95008","37.3014320000","-121.9475180000",,"POINT (-121.947518 37.301432)"
"PR0300925","QUIK STOP MARKET #550040","3695 PEARL AV","SAN JOSE","CA","95123","37.2729060000","-121.8694860000","+14082640780","POINT (-121.869486 37.272906)"
"PR0300926","7-ELEVEN 14302C","4630 PEARL AV","SAN JOSE","CA","95125","37.2648578000","-121.8651782000","+14082656761","POINT (-121.8651782 37.2648578)"
"PR0300927","PAUL & EDDIES MONTA VISTA INN","21619 STEVENS CREEK BL","CUPERTINO","CA","95014","37.3232430000","-122.0515020000","+14082522226","POINT (-122.051502 37.323243)"
"PR0300933","DAYBREAK DONUTS","3263 SIERRA RD","SAN JOSE","CA","95132","37.3991847000","-121.8482970000","+14086272347","POINT (-121.848297 37.3991847)"
"PR0300934","PIEDMONT HILLS HIGH SCHOOL","1377 PIEDMONT RD","SAN JOSE","CA","95132","37.4038750000","-121.8491480000",,"POINT (-121.849148 37.403875)"
"PR0300935","SPORTS PAGE","1431 PLYMOUTH ST","MOUNTAIN VIEW","CA","94040","37.4161370000","-122.0785650000",,"POINT (-122.078565 37.416137)"
"PR0300936","ROUND TABLE PIZZA","1472 POLLARD RD","LOS GATOS","CA","95032","37.2645317000","-121.9845188000","+14083794691","POINT (-121.9845188 37.2645317)"
"PR0300937","RINCONADA LIQUORS","1480 POLLARD RD","LOS GATOS","CA","95032","37.2644780000","-121.9840560000","+14083741345","POINT (-121.984056 37.264478)"
"PR0300938","SAFEWAY #742","1500 POLLARD RD","LOS GATOS","CA","95030","37.2638650000","-121.9846230000",,"POINT (-121.984623 37.263865)"
"PR0300940","POMEROY SCHOOL","1250 POMEROY AV","SANTA CLARA","CA","95051","37.3483230000","-121.9868740000",,"POINT (-121.986874 37.348323)"
"PR0300941","CALA MARKET ONE","1570 POMEROY AV","SANTA CLARA","CA","95051","37.3518458000","-121.9870551000","+14086428463","POINT (-121.9870551 37.3518458)"
"PR0300944","LABYRINTH BAR & KITCHEN","45 POST ST","SAN JOSE","CA","95113","37.3349500000","-121.8906622000","+14087990690","POINT (-121.8906622 37.33495)"
"PR0300947","THE MYNT","5210 PROSPECT RD","SAN JOSE","CA","95129","37.2914880000","-121.9933450000","+14089739673","POINT (-121.993345 37.291488)"
"PR0300950","SEE'S CANDIES #25","18470 PROSPECT RD","SARATOGA","CA","95070","37.2919360000","-121.9945900000",,"POINT (-121.99459 37.291936)"
"PR0300951","ROUND TABLE PIZZA #2","18482 PROSPECT RD","SARATOGA","CA","95070","37.2921868000","-121.9962710000","+14082520277","POINT (-121.996271 37.2921868)"
"PR0300952","LA CUEVA MEX GRILL","18486 PROSPECT RD","SARATOGA","CA","95070","37.2921868000","-121.9962711000","+14085178603","POINT (-121.9962711 37.2921868)"
"PR0300953","PROSPECT HIGH SCHOOL","18900 PROSPECT RD","SARATOGA","CA","95070","37.2929000000","-122.0025020000",,"POINT (-122.002502 37.2929)"
"PR0300954","SARATOGA COUNTRY CLUB INC","21990 PROSPECT RD","SARATOGA","CA","95070","37.2855770000","-122.0502310000","+15555555555","POINT (-122.050231 37.285577)"
"PR0300955","YUKI SUSHI","1827 PRUNERIDGE AV","SANTA CLARA","CA","95050","37.3299742000","-121.9508124000",,"POINT (-121.9508124 37.3299742)"
"PR0300956","GRIZZLY SPIRITS","2364 PRUNERIDGE AV","SANTA CLARA","CA","95050","37.3295764000","-121.9627496000","+14088353174","POINT (-121.9627496 37.3295764)"
"PR0300957","THE SPORTSMEN'S LOUNGE","2368 PRUNERIDGE AV","SANTA CLARA","CA","95050","37.3296599000","-121.9627230000","+14082444600","POINT (-121.962723 37.3296599)"
"PR0300960","MEXICO LINDO RESTAURANT","11 RACE ST","SAN JOSE","CA","95126","37.3308400000","-121.9121260000","+14082957765","POINT (-121.912126 37.33084)"
"PR0300964","LYNBROOK HIGH SCHOOL","1280 JOHNSON AV","SAN JOSE","CA","95129","37.3011698000","-122.0053339000",,"POINT (-122.0053339 37.3011698)"
"PR0300965","JOAQUIN MILLER JR HIGH SCHOOL","6251 RAINBOW DR","SAN JOSE","CA","95129","37.3013890000","-122.0138700000",,"POINT (-122.01387 37.301389)"
"PR0300967","THE PRO","541 RAMONA ST","PALO ALTO","CA","94301","37.4447990000","-122.1613769000","+16509064485","POINT (-122.1613769 37.444799)"
"PR0300969","LA PLAZA MARKET","40 S RENGSTORFF AV","MOUNTAIN VIEW","CA","94040","37.4029219000","-122.0978360000","+16509673630","POINT (-122.097836 37.4029219)"
"PR0300970","LEROY ANDERSON ELEMENTARY SCHOOL","4000 RHODA DR","SAN JOSE","CA","95117","37.3045050000","-121.9707540000",,"POINT (-121.970754 37.304505)"
"PR0300971","RAYMOND FISHER JR HIGH SCHOOL","19195 FISHER AV","LOS GATOS","CA","95032","37.2342640000","-121.9730520000","+14083352300","POINT (-121.973052 37.234264)"
"PR0300972","CRITTENDEN SCHOOL","1701 ROCK ST","MOUNTAIN VIEW","CA","94040","37.4120220000","-122.0843500000","+16509036945","POINT (-122.08435 37.412022)"
"PR0300973","ROBERT SANDERS SCHOOL","3411 ROCKY MOUNTAIN DR","SAN JOSE","CA","95127","37.3516490000","-121.8018100000",,"POINT (-121.80181 37.351649)"
"PR0300974","DWIGHT D EISENHOWER SCHOOL","277 RODONOVAN DR","SANTA CLARA","CA","95051","37.3291510000","-121.9892720000",,"POINT (-121.989272 37.329151)"
"PR0300975","QUIK & SAVE","5245 ROEDER RD","SAN JOSE","CA","95111","37.2613120000","-121.8101040000","+14082256236","POINT (-121.810104 37.261312)"
"PR0300976","PETERSON MIDDLE SCHOOL","1380 ROSALIA AV","SUNNYVALE","CA","94087","37.3489198000","-122.0080432000","+14084232057","POINT (-122.0080432 37.3489198)"
"PR0300983","HENRY'S WORLD FAMOUS HI-LIFE INC","301 W ST JOHN ST","SAN JOSE","CA","95110","37.3354390000","-121.8982020000",,"POINT (-121.898202 37.335439)"
"PR0300984","LHCF - GOOD SAMARITAN HOSPITAL THE","2425 SAMARITAN DR","SAN JOSE","CA","95124","37.2515326000","-121.9468415000","+14089774468","POINT (-121.9468415 37.2515326)"
"PR0300985","DE MARTINI ORCHARD","66 N SAN ANTONIO RD","LOS ALTOS","CA","94022","37.3825680000","-122.1143260000",,"POINT (-122.114326 37.382568)"
"PR0300990","DOHATSUTEN","799 SAN ANTONIO RD","PALO ALTO","CA","94303","37.4203070000","-122.1023550000","+16504932879","POINT (-122.102355 37.420307)"
"PR0300991","ESTRELLITA RESTAURANT","971 N SAN ANTONIO RD","LOS ALTOS","CA","94022","37.3985439000","-122.1143346000","+16509489865","POINT (-122.1143346 37.3985439)"
"PR0300992","CHEF CHU'S MANDARIN KITCHEN","1067 N SAN ANTONIO RD","LOS ALTOS","CA","94022","37.4006774000","-122.1135653999","+16509482696","POINT (-122.1135653999 37.4006774)"
"PR0300994","BILL'S MARKET-204","204 OAKLAND AV","SAN JOSE","CA","95116","37.3518270000","-121.8477590000",,"POINT (-121.847759 37.351827)"
"PR0300995","EL PIRRIN RESTAURANT","1900 E SAN ANTONIO ST","SAN JOSE","CA","95116","37.3516600000","-121.8480850000","+14087298551","POINT (-121.848085 37.35166)"
"PR0300997","JACK IN THE BOX #409","148 E SAN CARLOS ST","SAN JOSE","CA","95112","37.3325270000","-121.8840440000",,"POINT (-121.884044 37.332527)"
"PR0300999","MUDAI ETHIOPIAN RESTAURANT","503 W SAN CARLOS ST","SAN JOSE","CA","95126","37.3259140000","-121.8988190000","+14082922282","POINT (-121.898819 37.325914)"
"PR0301001","JACK IN THE BOX #439","1558 W SAN CARLOS ST","SAN JOSE","CA","95126","37.3229860000","-121.9193200000","+14082939605","POINT (-121.91932 37.322986)"
"PR0301007","LUTHER BURBANK SCHOOL DISTRICT","4 WABASH AV","SAN JOSE","CA","95128","37.3236680000","-121.9266120000",,"POINT (-121.926612 37.323668)"
"PR0301008","BEARS COCKTAILS","1872 W SAN CARLOS ST","SAN JOSE","CA","95128","37.3233312000","-121.9275447000","+14089982435","POINT (-121.9275447 37.3233312)"
"PR0301009","EDNA RAY CHINESE RESTAURANT","1890 W SAN CARLOS ST","SAN JOSE","CA","95128","37.3231510000","-121.9281840000","+14082933149","POINT (-121.928184 37.323151)"
"PR0301011","BANH MI OVEN (DOWNTOWN)","221 E SAN FERNANDO ST","SAN JOSE","CA","95112","37.3368200000","-121.8846970000",,"POINT (-121.884697 37.33682)"
"PR0301012","PEANUTS CAFE","275 E SAN FERNANDO ST","SAN JOSE","CA","95112","37.3372378000","-121.8835439000","+14089989778","POINT (-121.8835439 37.3372378)"
"PR0301013","BLACKBERRY FARM","21979 SAN FERNANDO AV","CUPERTINO","CA","95014","37.3179750000","-122.0604471000","+14087773140","POINT (-122.0604471 37.317975)"
"PR0301014","ONE STOP GROCERY COLD BEER","279 SAN JOSE AV","SAN JOSE","CA","95125","37.3087680000","-121.8760350000","+14083987446","POINT (-121.876035 37.308768)"
"PR0301015","PANERA BREAD","15200 LOS GATOS BL STE 100","LOS GATOS","CA","95032","37.2473430000","-121.9567190000","+14083562142","POINT (-121.956719 37.247343)"
"PR0301016","JIFFY MART AND LIQUOR","15665 LOS GATOS BL","LOS GATOS","CA","95032","37.2405800000","-121.9608150000","+14088274387","POINT (-121.960815 37.24058)"
"PR0301017","LOU'S COFFEE SHOP","15691 LOS GATOS BL","LOS GATOS","CA","95032","37.2406573000","-121.9610459000",,"POINT (-121.9610459 37.2406573)"
"PR0301018","NOB HILL GENERAL STORE-LOS GATOS","15710 LOS GATOS BL","LOS GATOS","CA","95032","37.2296414000","-121.9658983000","+14083560421","POINT (-121.9658983 37.2296414)"
"PR0301019","CLASSIC BURGERS LOS GATOS","15737 LOS GATOS BL","LOS GATOS","CA","95032","37.2400740000","-121.9614610000","+14083566910","POINT (-121.961461 37.240074)"
"PR0301020","JACK IN THE BOX","15771 LOS GATOS BL","LOS GATOS","CA","95032","37.2395430000","-121.9616890000","+14083561049","POINT (-121.961689 37.239543)"
"PR0301021","HAPPY HOUND LOS GATOS","15899 LOS GATOS BL","LOS GATOS","CA","95032","37.2296875000","-121.9660211000","+14083582444","POINT (-121.9660211 37.2296875)"
"PR0301024","LOUISE VAN METER SCHOOL","16445 LOS GATOS BL","LOS GATOS","CA","95032","37.2304930000","-121.9656460000",,"POINT (-121.965646 37.230493)"
"PR0301026","PAUL'S IMPERIO LIQUORS #2","134 E SAN SALVADOR ST","SAN JOSE","CA","95112","37.3312300000","-121.8830960000","+14085125330","POINT (-121.883096 37.33123)"
"PR0301030","GROCERY OUTLET OF DOWNTOWN SAN JOSE","272 E SANTA CLARA ST","SAN JOSE","CA","95113","37.3385270000","-121.8841000000","+14084478350","POINT (-121.8841 37.338527)"
"PR0301033","COM GA NAM AN","348 E SANTA CLARA ST","SAN JOSE","CA","95113","37.3394513000","-121.8832198000","+14082973402","POINT (-121.8832198 37.3394513)"
"PR0301034","THE LAST ROUND TAVERN","354 E SANTA CLARA ST","SAN JOSE","CA","95113","37.3395020000","-121.8827330000","+14082869710","POINT (-121.882733 37.339502)"
"PR0301038","KENTUCKY FRIED CHICKEN-552","552 E SANTA CLARA ST","SAN JOSE","CA","95112","37.3414490000","-121.8786270000",,"POINT (-121.878627 37.341449)"
"PR0301041","WIENERSCHNITZEL","902 E SANTA CLARA ST","SAN JOSE","CA","95116","37.3446120000","-121.8720800000","+14082933897","POINT (-121.87208 37.344612)"
"PR0301043","CHAPARRAL SUPER MARKET","1001 E SANTA CLARA ST","SAN JOSE","CA","95116","37.3457880000","-121.8705580000","+14089988028","POINT (-121.870558 37.345788)"
"PR0301044","EL CAFETAL RESTAURANTE COLOMBIANO","1006 E SANTA CLARA ST","SAN JOSE","CA","95116","37.3455490000","-121.8701370000","+14082510474","POINT (-121.870137 37.345549)"
"PR0301045","MAR Y SOL RESTAURANTE","1179 E SANTA CLARA ST","SAN JOSE","CA","95116","37.3472356000","-121.8673050000","+16696998155","POINT (-121.867305 37.3472356)"
"PR0301046","ROSE MARKET","1250 E SANTA CLARA ST","SAN JOSE","CA","95116","37.3477960000","-121.8659540000","+14084212273","POINT (-121.865954 37.347796)"
"PR0301047","TRADE RITE MARKET - GROCERY STORE","1555 ALUM ROCK AV","SAN JOSE","CA","95116","37.3509521000","-121.8601805000","+14083937431","POINT (-121.8601805 37.3509521)"
"PR0301048","GRUPO DE CARNAVAL CULTURAL PORTUGUES DE SAO JOSE","1610 ALUM ROCK AV","SAN JOSE","CA","95116","37.3511984000","-121.8585629000","+14082727765","POINT (-121.8585629 37.3511984)"
"PR0301049","ADEGA","1614 ALUM ROCK AV","SAN JOSE","CA","95116","37.3511100000","-121.8582920000","+14089269075","POINT (-121.858292 37.35111)"
"PR0301050","V & V DELICIOUS CREPE","1661 ALUM ROCK AV","SAN JOSE","CA","95116","37.3526730000","-121.8573180000","+14083135591","POINT (-121.857318 37.352673)"
"PR0301051","SABY THAI RESTAURANT","62 W SANTA CLARA ST","SAN JOSE","CA","95113","37.3355340000","-121.8911860000","+14089190233","POINT (-121.891186 37.335534)"
"PR0301052","CARRY NATIONS","8 N SANTA CRUZ AV","LOS GATOS","CA","95030","37.2227760000","-121.9835370000",,"POINT (-121.983537 37.222776)"
"PR0301053","FLEUR DE COCOA","39 N SANTA CRUZ AV","LOS GATOS","CA","95030","37.2236690000","-121.9837000000","+14083543574","POINT (-121.9837 37.223669)"
"PR0301054","UME TEA","47 N SANTA CRUZ AV","LOS GATOS","CA","95030","37.2239227000","-121.9832647000","+13126329110","POINT (-121.9832647 37.2239227)"
"PR0301055","ROUND TABLE PIZZA","57 N SANTA CRUZ AV","LOS GATOS","CA","95030","37.2241397000","-121.9831691000","+16692404043","POINT (-121.9831691 37.2241397)"
"PR0301056","BLACK WATCH THE","141 1/2 N SANTA CRUZ AV","LOS GATOS","CA","95030","37.2226855000","-121.9838375000",,"POINT (-121.9838375 37.2226855)"
"PR0301057","FORBES MILL STEAKHOUSE","206 N SANTA CRUZ AV","LOS GATOS","CA","95030","37.2260160000","-121.9818970000","+14083956434","POINT (-121.981897 37.226016)"
"PR0301058","PEDRO'S RESTAURANT","316 N SANTA CRUZ AV","LOS GATOS","CA","95030","37.2276950000","-121.9814100000","+14083547570","POINT (-121.98141 37.227695)"
"PR0301059","LOS GATOS CAFE","340 N SANTA CRUZ AV","LOS GATOS","CA","95030","37.2283110000","-121.9809820000",,"POINT (-121.980982 37.228311)"
"PR0301062","7-ELEVEN FOOD STORE #14221D","657 N SANTA CRUZ AV","LOS GATOS","CA","95030","37.2357520000","-121.9777320000",,"POINT (-121.977732 37.235752)"
